,id,gnaf_address_id,street,suburb,postcode,state_code,latitude,longitude,type,land_sqm,bed,bath,car,floorplan,Unnamed: 0,Beds,Baths,Car,Lot,Valuation,SateType1,SaleType2,DateSold1,DateSold2,SoldPrice1,SoldPrice2,Picture,Blob,Street_Numb,Street_Name,Street_Suff
4,216227,43622,26 Australorp Avenue,Seven Hills,2147,NSW,-33.782587,150.929551,house,450,1,1,1,TRUE,4,3,1,1,449,"$670,000",Private Sale            ,Private Sale            ,May-96,Jun-92,"$159,000","$152,500",https://s3-ap-southeast-2.amazonaws.com/view-property-360-images/zm1OcWwlm4hw1XjdZWS5HDGft2Y9SXRN905RO2qw0sk1/26-australorp-avenue-seven-hills-nsw-2147_img0.jpg,"26 Australorp Avenue is a house in Seven Hills with 3 bedrooms and 1 bathroom. Its postcode is 2147. Its land area is 449 square metres. In May 1996 this property sold for $159,000. ",26,Australorp,Avenue
5,4060929,45824,7 Marampo Street,Marayong,2148,NSW,-33.7455,150.88489,house,,1,1,3,FALSE,5,3,1,3,552,"$572,333",Auction            , ,Jun-09, ,"$350,000", ,https://s3-ap-southeast-2.amazonaws.com/view-property-360-images/ZfCKkRegPTf-OpH5x3tl1I72uSrcciE-D0Sf4lD3KbM1/7-marampo-street-marayong-nsw-2148_img0.jpg,"7 Marampo Street is a house in Marayong with 3 bedrooms and 1 bathroom. Its postcode is 2148. This property is on a 552 square metre block of land. Our records show that this was last sold in 2009 for $350,000. ",7,Marampo,Street
7,68378,75889,26 Dan Avenue,Blacktown,2148,NSW,-33.76273,150.89552,house,625,5,2,4,TRUE,7,5,2,4,625,"$808,333",Private Sale            ,Private Sale            ,May-09,Mar-01,"$160,000","$210,000",https://s3-ap-southeast-2.amazonaws.com/view-property-360-images/jQVEpuTfZNl14fR4QPxNi3GJln6U-yhDZzMtpZm5ZAo1/26-dan-avenue-blacktown-nsw-2148_img0.jpg,"26 Dan Avenue is a house in Blacktown with 5 bedrooms and 2 bathrooms. Its postcode is 2148. This property is on a 625 square metre block of land. In May 2009 this sold for $160,000. ",26,Dan,Avenue
9,3932768,82943,22 Larra Crescent,North Rocks,2151,NSW,-33.761289,151.012126,house,,3,3,2,TRUE,9,4,3,2,764,"$1,055,333", , , , , , ,https://s3-ap-southeast-2.amazonaws.com/view-property-360-images/DtM11z8DZeXhX-ORw8C709Wy8SpcbtO-xyKYXioyZuM1/22-larra-crescent-north-rocks-nsw-2151_img0.jpg,"22 Larra Crescent, North Rocks 2151 NSW is a house. It has 4 bedrooms and 3 bathrooms. The land area of this property is 764 square metres. ",22,Larra,Crescent
16,4060223,184174,5 Eta Street,Blacktown,2148,NSW,-33.778847,150.89609,house,550,1,1,2,TRUE,16,2,1,2,552,"$573,333", , , , , , ,https://s3-ap-southeast-2.amazonaws.com/view-property-360-images/U-NZiEel-ZwMBEXSkeZVv_PsZBlDo4sQIMmQdwR0gfQ1/5-eta-street-blacktown-nsw-2148_img0.jpg,"5 Eta Street, Blacktown 2148 NSW is a house. It has 3 bedrooms and 1 bathroom. The block size is 552 sqm. According to our records, this last sold for $300,000 in July 2009. ",5,Eta,Street
17,3155491,187457,29 Allambie Avenue,Northmead,2152,NSW,-33.785951,150.989849,house,923,1,1,0,TRUE,17,3,1,1,922,"$925,000", ,Auction            , ,May-15, ,"$1,250,000",https://s3-ap-southeast-2.amazonaws.com/view-property-360-images/CL-QdW8SFTQsUcWm-js_4HPZYxGs7uD_GZ8jmP-fBAY1/29-allambie-avenue-northmead-nsw-2152_img0.jpg,"This is a house in Northmead with 3 bedrooms and 1 bathroom. Its postcode is 2152. This is on a 922 square metre block of land. The last time this property sold was in May 2015 for $1,250,000. ",29,Allambie,Avenue
22,2564548,224527,19 Botany Boulevard,Seven Hills,2147,NSW,-33.758825,150.944432,house,551,3,3,3,TRUE,22,5,3,3,581,"$1,052,667", , , , , , ,https://s3-ap-southeast-2.amazonaws.com/view-property-360-images/FZftEOuto07KJIpVs3taAmS-tKiwMguc5Ld9Np47Xwc1/19-botany-boulevard-seven-hills-nsw-2147_img0.jpg,"19 Botany Boulevard, Seven Hills 2147 NSW is a house. It has 5 bedrooms and 3 bathrooms. The block size is 581 sqm. ",19,Botany,Boulevard
30,124434,310346,69 Breakfast Road,Marayong,2148,NSW,-33.75115,150.888151,house,600,1,1,4,TRUE,30,3,1,2,0,"$607,333", , , , , , ,https://s3-ap-southeast-2.amazonaws.com/view-property-360-images/bjPXLVccIdvalV6SadnnqxdcMtWL2HfdsjY_a_yFbLM1/69-breakfast-road-marayong-nsw-2148_img0.jpg,The land area is 610 square metres. ,69,Breakfast,Road
38,37143,387213,11A Regal Avenue,Kings Langley,2147,NSW,-33.749492,150.927701,house,,2,2,1,TRUE,38,4,2,1,702,"$944,167", , , , , , ,https://s3-ap-southeast-2.amazonaws.com/view-property-360-images/jGULz1Vz92I87X1076TBqUxqgx7P3qDfkfXwQ_iGTvc1/11a-regal-avenue-kings-langley-nsw-2147_img0.jpg,"11A Regal Avenue, Kings Langley 2147 NSW is a house with a tile roof. This property has 4 bedrooms and 2 bathrooms. Last time it sold, it went for $785,000, which was in 2018. ",11A,Regal,Avenue
43,1389691,439537,68 Whitby Road,Kings Langley,2147,NSW,-33.748868,150.938639,house,714,2,2,6,TRUE,43,4,2,6,724,"$856,667",Private Sale            , ,Dec-11, ,"$555,000", ,https://s3-ap-southeast-2.amazonaws.com/view-property-360-images/1F6YVw_Gma-U7AeJsMNFi7HYo0vb0pnuw0dzM7ZBVPw1/68-whitby-road-kings-langley-nsw-2147_img0.jpg,"68 Whitby Road, Kings Langley 2147 NSW is a house. This property has 4 bedrooms and 2 bathrooms. Its block size is 724 sqm. It was last sold in 2011 for $555,000. ",68,Whitby,Road
44,1551564,442513,17 Marcia Street,Toongabbie,2146,NSW,-33.785068,150.947179,house,1011,1,1,1,TRUE,44,3,1,1,1011,"$733,667", , , , , , ,https://p360images.realestateview.com.au/default/17-marcia-street-toongabbie-nsw-2146-xl,"This is a house in Toongabbie, 2146 with 3 bedrooms and 1 bathroom. This property is on a 1011 sqm block of land. ",17,Marcia,Street
45,486464,446506,2 Lennox Street,Old Toongabbie,2146,NSW,-33.796667,150.964308,house,733,2,2,1,TRUE,45,4,2,1,0,"$815,333", ,Private Sale            , ,Jul-18, ,"$1,000,000",https://s3-ap-southeast-2.amazonaws.com/view-property-360-images/J8mOYZTWd9Q9RH93ZHkV3A7_hq_ct51cHcjHvjtpKWo1/2-lennox-street-old-toongabbie-nsw-2146_img0.jpg,"2 Lennox Street, Old Toongabbie 2146 NSW is a house with 4 bedrooms and 2 bathrooms. It has weatherboard walls. Its block size is 733 sqm. In May 2016 this address sold for $970,000. ",2,Lennox,Street
53,464282,528541,5 Hillside Road,Blacktown,2148,NSW,-33.778624,150.894018,house,556,1,1,1,TRUE,53,3,1,1,562,"$591,000",Private Sale            , ,Feb-94, ,"$124,950", ,https://s3-ap-southeast-2.amazonaws.com/view-property-360-images/ttosTywESmRJvp_b32g3QQzzwnR6PaEquIGaI_Jkc5Q1/5-hillside-road-blacktown-nsw-2148_img0.jpg,"This is a house in Blacktown with 3 bedrooms and 1 bathroom. Its postcode is 2148. This is on a 562 square metre block of land. Last time it sold was for $124,950, which was in February 1994. ",5,Hillside,Road
57,4108692,562636,5 Maureen Place,Blacktown,2148,NSW,-33.776108,150.89397,house,632,2,2,1,TRUE,57,4,2,1,626,"$730,600",Private Sale            , ,Sep-91, ,"$119,000", ,https://s3-ap-southeast-2.amazonaws.com/view-property-360-images/QVcSvRR_h_n7WUW_wvH_MbBwMEIL9ejNCVqae8fw8B81/5-maureen-place-blacktown-nsw-2148_img0.jpg,"5 Maureen Place, Blacktown 2148 NSW is a house. It has 4 bedrooms and 2 bathrooms. Its block size is 626 square metres. Last time it sold, it went for $119,000, which was in 1991. ",5,Maureen,Place
63,3518536,605718,90 Bungaree Rd,Toongabbie,2146,NSW,-33.794064,150.95909,house,928,6,6,4,FALSE,63,10,6,4,935,"$1,036,667", ,Private Sale            , ,Aug-15, , ,https://s3-ap-southeast-2.amazonaws.com/view-property-360-images/jv0RrgS4JGQ64tYslMeikRsKaVH4pkPvEGnBTDB1l3w1/90-bungaree-road-toongabbie-nsw-2146_img0.jpg,"This is a house in Toongabbie with 3 bedrooms and 1 bathroom. Its postcode is 2146. The block size is 935 square metres. When it last sold in 2015, it went for $956,000. ",90,Bungaree,Road
65,1970916,630769,1 Charles Street,Blacktown,2148,NSW,-33.753324,150.917515,house,544,1,1,1,TRUE,65,0,0,0,0,"$635,000", , , , , , ,https://p360images.realestateview.com.au/default/1-charles-street-blacktown-nsw-2148-xl,1 Charles Street is a house in Blacktown with 3 bedrooms and 1 bathroom. Its postcode is 2148. It is on a block of land that is 558 sqm. ,1,Charles,Street
68,2636905,675031,7 Oulton Street,Prospect,2148,NSW,-33.793224,150.90953,house,,3,3,3,FALSE,68,5,3,3,595,"$1,087,650", ,Private Sale            , ,Mar-06, ,"$395,000",https://s3-ap-southeast-2.amazonaws.com/view-property-360-images/4ZvlddXuMi0kLnFfXLXq_MxCEJ4I06MXGfutJiUfV-M1/7-oulton-street-prospect-nsw-2148_img0.jpg,"This is a house in Prospect, 2148 with 5 bedrooms and 3 bathrooms. The block size is 596 sqm. Our records show that this was last sold in 2006 for $395,000. ",7,Oulton,Street
77,3977973,827800,41 Shannon Street,Lalor Park,2147,NSW,-33.756065,150.93623,house,556,1,1,2,TRUE,77,3,1,2,565,"$645,000",Private Sale            ,Private Sale            ,Oct-13,Apr-04,"$571,000","$363,000",https://p360images.realestateview.com.au/default/41-shannon-street-lalor-park-nsw-2147-xl,"41 Shannon Street is a house in Lalor Park with 3 bedrooms and 1 bathroom. Its postcode is 2147. This is on a 565 sqm block of land. According to our data, this was last sold for $571,000 in October 2013. ",41,Shannon,Street
82,68324,885813,29 Highlands Crescent,Blacktown,2148,NSW,-33.774377,150.892885,house,556,1,1,2,TRUE,82,3,1,2,556,"$603,333", ,Private Sale            , ,Jun-18, , ,https://s3-ap-southeast-2.amazonaws.com/view-property-360-images/0c8hTPFXl3UCpXJGX-BPvtS6xHPRkhcU802i0Rt3MJo1/29-highlands-crescent-blacktown-nsw-2148_img0.jpg,"29 Highlands Crescent is a house in Blacktown with 3 bedrooms and 1 bathroom. Its postcode is 2148. Its block size is 556 sqm. In June 2018 this address sold for $635,000. ",29,Highlands,Crescent
84,124439,921855,33 Terrigal Street,Marayong,2148,NSW,-33.748276,150.886273,house,558,1,1,2,TRUE,84,5,1,2,558,"$793,333",Private Sale            ,Private Sale            ,Dec-07,Dec-99,"$352,500","$200,000",https://s3-ap-southeast-2.amazonaws.com/view-property-360-images/rDdaA6iGf3SUuCKI0Q3bYyyqlJBSB8mEL7b9DWQ5Qu01/33-terrigal-street-marayong-nsw-2148_img0.jpg,"33 Terrigal Street, Marayong 2148 NSW is a house. It has 5 bedrooms and 1 bathroom. The size of this block is 558 sqm. Last time it sold was for $352,500, which was in 2007. ",33,Terrigal,Street
87,68400,955444,66 Kildare Road,Blacktown,2148,NSW,-33.769135,150.90114,house,1442,2,2,1,FALSE,87,3,2,1,1450,"$729,333", ,Private Sale            , ,Mar-16, , ,https://s3-ap-southeast-2.amazonaws.com/view-property-360-images/6P9wXnGUomD0XImf8L80s3x7AXbipWj1-_k9VPr-vDY1/66-kildare-road-blacktown-nsw-2148_img0.jpg,"66 Kildare Road, Blacktown 2148 NSW is a house. This property has 3 bedrooms and 2 bathrooms. The block size is 1450 sqm. In March 2016 it sold for $3,460,000. ",66,Kildare,Road
89,1356746,974341,113 Northcott Road,Lalor Park,2147,NSW,-33.759141,150.926082,house,632,2,2,3,TRUE,89,4,2,3,641,"$788,333", , , , , , ,https://s3-ap-southeast-2.amazonaws.com/view-property-360-images/xiKVLulRMFdSjqWc1r4DqXJEt4NOwZOLh9NTSeqI-Ao1/113-northcott-road-lalor-park-nsw-2147_img0.jpg,"113 Northcott Road, Lalor Park 2147 NSW is a house. This property has 4 bedrooms and 2 bathrooms. The land area of this property is 641 square metres. ",113,Northcott,Road
95,2484644,1022577,10 Grandview Avenue,Seven Hills,2147,NSW,-33.793018,150.930884,house,727,2,2,2,TRUE,95,4,2,2,730,"$901,667",Private Sale            , ,Feb-06, ,"$675,000", ,https://s3-ap-southeast-2.amazonaws.com/view-property-360-images/SVoCgMCYPgnsSmgXJp-YX9BtbeMOjiYomyrfNgQnqj41/10-grandview-avenue-seven-hills-nsw-2147_img0.jpg,"This is a house in Seven Hills, 2147 with 4 bedrooms and 2 bathrooms. The block size of this property is 730 sqm. In February 2006 this sold for $675,000. ",10,Grandview,Avenue
102,4103176,1066752,7 Conway Place,Kings Langley,2147,NSW,-33.74949,150.93149,house,701,2,2,2,FALSE,102,4,2,2,715,"$948,333",Private Sale            ,Private Sale            ,Oct-09,Jul-07,"$549,950","$509,000",https://s3-ap-southeast-2.amazonaws.com/view-property-360-images/pu8G0hQMFFYinMyLBsM1pmVqSHJE4qb4LcdrldEm7ZU1/7-conway-place-kings-langley-nsw-2147_img0.jpg,"7 Conway Place, Kings Langley 2147 NSW is a house with 4 bedrooms and 2 bathrooms. This property is on a 715 square metre block of land. According to our data, this was last sold for $549,950 in October 2009. ",7,Conway,Place
107,4075574,1112348,10 Hayes Ave,Northmead,2152,NSW,-33.7936,150.989479,house,,1,1,1,TRUE,107,2,1,1,562,"$681,667",Private Sale            ,Private Sale            ,Jul-96,Feb-94,"$170,000","$80,000",https://p360images.realestateview.com.au/default/10-hayes-avenue-northmead-nsw-2152-xl,"This is a house in Northmead with 2 bedrooms and 1 bathroom. Its postcode is 2152. The block size is 562 sqm. It was last sold in 1996 for $170,000. ",10,Hayes,Avenue
117,2016448,1176462,4 King Place,Kings Langley,2147,NSW,-33.741333,150.92445,house,703,2,2,0,TRUE,117,0,0,0,0,"$681,667", , , , , , ,https://p360images.realestateview.com.au/default/4-king-place-kings-langley-nsw-2147-xl,The block size of this property is 703 square metres. ,4,King,Place
120,562786,1184542,39 Orana Avenue,Seven Hills,2147,NSW,-33.77849,150.923951,house,651,2,2,1,TRUE,120,4,2,1,671,"$733,267", ,Private Sale            , ,Nov-98, ,"$193,000",https://s3-ap-southeast-2.amazonaws.com/view-property-360-images/2hrUDT5Do9J42j-LtBO7Af8xp6ZMC1Yu60M_ZboIjPU1/39-orana-avenue-seven-hills-nsw-2147_img0.jpg,"39 Orana Avenue is a house in Seven Hills with 4 bedrooms and 2 bathrooms. Its postcode is 2147. The block size of this property is 671 sqm. This house previously sold for $193,000 in November 1998. ",39,Orana,Avenue
127,37155,1210488,19 Ellis Place,Kings Langley,2147,NSW,-33.749499,150.942832,house,,2,2,3,TRUE,127,4,2,3,756,"$944,167",Private Sale            ,Private Sale            ,May-18,May-01,"$286,000", ,https://s3-ap-southeast-2.amazonaws.com/view-property-360-images/0mO4i6zJdx7rWLnkeG1NAkuSV7Pt-bFzFHG_FWUjiXE1/19-ellis-place-kings-langley-nsw-2147_img0.jpg,"19 Ellis Place, Kings Langley 2147 NSW is a house. It has 4 bedrooms and 2 bathrooms. This is on a 756 sqm block of land. In May 2001 this home sold for $286,000. ",19,Ellis,Place
129,4119991,1223563,96 Columbia Road,Seven Hills,2147,NSW,-33.78768,150.92328,house,556,2,2,3,TRUE,129,3,2,2,0,"$720,333", , , , , , ,https://s3-ap-southeast-2.amazonaws.com/view-property-360-images/B_HZMIqvVPWcdH9uHJncd6QVueJDWrHb0LXQXuYbGDA1/96-columbia-road-seven-hills-nsw-2147_img0.jpg,"96 Columbia Road, Seven Hills 2147 NSW is a house with 3 bedrooms and 2 bathrooms. Its land area is 532 sqm. This house last sold for $745,000 in April 2017. ",96,Columbia,Road
132,1828727,1242582,3 Alam Street,Blacktown,2148,NSW,-33.76092,150.89607,house,,3,3,1,TRUE,132,3,3,1,559,"$676,000", , , , , , ,https://s3-ap-southeast-2.amazonaws.com/view-property-360-images/WxlwUMfy-_HexvdlvIML1LSsLBoYwvw_Y9oAKMeMe2I1/3-alam-street-blacktown-nsw-2148_img0.jpg,"This is a house in Blacktown, 2148 with 3 bedrooms and 3 bathrooms. The block size is 559 sqm. 3 Alam Street last sold for $667,000 in 2015. ",3,Alam,Street
133,1613219,1246110,21 Willmot Avenue,Toongabbie,2146,NSW,-33.786943,150.960291,house,594,2,2,2,TRUE,133,3,2,2,607,"$774,333", , , , , , ,https://s3-ap-southeast-2.amazonaws.com/view-property-360-images/bhMDerl-N52bgfzRazuNtrULv8w-mtlYEMohngw6Rk01/21-willmot-avenue-toongabbie-nsw-2146_img0.jpg,"21 Willmot Avenue, Toongabbie 2146 NSW is a house. This property has 3 bedrooms and 2 bathrooms. The block size is 607 square metres. According to our data, this last sold for $346,000 in April 2006. ",21,Willmot,Avenue
134,3509989,1255164,14 Simpson Place,Kings Langley,2147,NSW,-33.744867,150.925982,house,,2,2,2,FALSE,134,4,2,2,737,"$925,000", ,Private Sale            , ,Sep-07, ,"$519,000",https://s3-ap-southeast-2.amazonaws.com/view-property-360-images/kxrTwf1gGwyOBBkTXGePP61PzoxeyfUBeU4x6CrLY-w1/14-simpson-place-kings-langley-nsw-2147_img0.jpg,"14 Simpson Place, Kings Langley 2147 NSW is a house with 4 bedrooms and 2 bathrooms. The land area of this property is 737 sqm. It last sold for $519,000 in September 2007. ",14,Simpson,Place
143,2872414,1353201,22 Merlin Street,Blacktown,2148,NSW,-33.787216,150.907245,house,581,1,1,2,TRUE,143,3,1,2,596,"$582,167",Private Sale            , ,Mar-04, ,"$358,000", ,https://s3-ap-southeast-2.amazonaws.com/view-property-360-images/WpuyXOH2rgoqxUTU8mFi7RYoaEW4Esz0SS8iW4UEj141/22-merlin-street-blacktown-nsw-2148_img0.jpg,"This is a house in Blacktown with 3 bedrooms and 1 bathroom. Its postcode is 2148. It is on a block of land that is 596 sqm. In March 2004 this address sold for $358,000. ",22,Merlin,Street
144,4088407,1356947,10 Fursorb Street,Marayong,2148,NSW,-33.750874,150.895034,house,556,2,2,3,TRUE,144,4,2,3,548,"$718,109",Private Sale            , ,Jun-18, , , ,https://s3-ap-southeast-2.amazonaws.com/view-property-360-images/TIQvjQv2Y-8iA42cvf59Vc1sBsju5iVziC9cULXDreo1/10-fursorb-street-marayong-nsw-2148_img0.jpg,"This is a house in Marayong, 2148 with 4 bedrooms and 2 bathrooms. This property is on a 548 square metre block of land. It last sold for $705,000 in June 2018. ",10,Fursorb,Street
145,4105549,1361744,5 Hudson Street,Seven Hills,2147,NSW,-33.78511,150.93874,house,555,2,2,2,TRUE,145,4,2,2,555,"$812,000", , , , , , ,https://s3-ap-southeast-2.amazonaws.com/view-property-360-images/w0sBOqwb5lPvT6MGMmV-o54t65GNXR4_L6uR2bHQwyE1/5-hudson-street-seven-hills-nsw-2147_img0.jpg,"5 Hudson Street, Seven Hills 2147 NSW is a house. This property has 4 bedrooms and 2 bathrooms. The land area of this property is 555 square metres. ",5,Hudson,Street
147,1850470,1365434,63 Nairana Drive,Marayong,2148,NSW,-33.743826,150.893941,house,,3,3,2,TRUE,147,5,3,2,557,"$907,500",Private Sale            ,Private Sale            ,Jul-99,Feb-95,"$175,000","$127,000",https://s3-ap-southeast-2.amazonaws.com/view-property-360-images/NNYFeec095c_U1hgDvv4lExraYFOGkSdp3ok-53lNeY1/63-nairana-drive-marayong-nsw-2148_img0.jpg,"This is a house in Marayong with 5 bedrooms and 3 bathrooms. Its postcode is 2148. The block size is 557 sqm. The last sold price we have on record for this address is $175,000 which is from July 1999. ",63,Nairana,Drive
149,4159020,1389242,7 Marcus Street,Kings Park,2148,NSW,-33.739098,150.90376,house,576,2,2,1,TRUE,149,3,2,1,555,"$733,167",Private Sale            , ,Jul-03, ,"$340,000", ,https://s3-ap-southeast-2.amazonaws.com/view-property-360-images/PyVZbr6_-YOM5anFutPweMoTCediyuYq_p4ZkttARKY1/7-marcus-street-kings-park-nsw-2148_img0.jpg,"7 Marcus Street, Kings Park 2148 NSW is a house. This property has 3 bedrooms and 2 bathrooms. This is on a 582 sqm block of land. Last time it sold, it went for $340,000, which was in July 2003. ",7,Marcus,Street
152,128449,1412345,120 Fitzwilliam Road,Toongabbie,2146,NSW,-33.785303,150.96029,house,556,1,1,2,TRUE,152,4,1,2,556,"$748,333",Private Sale            , ,Sep-85, ,"$88,500", ,https://s3-ap-southeast-2.amazonaws.com/view-property-360-images/WgHZZfF_HGzihOQx64Vb9qPTEQ4VpJRJQ5ScPZ_AfQ41/120-fitzwilliam-road-toongabbie-nsw-2146_img0.jpg,"120 Fitzwilliam Road, Toongabbie 2146 NSW is a house with brick veneer walls. This property has 4 bedrooms and 1 bathroom. This is on a 556 sqm block of land. In September 1985 this property sold for $88,500. ",120,Fitzwilliam,Road
154,4149916,1433061,128 Madagascar Drive,Kings Park,2148,NSW,-33.73762,150.90755,house,557,1,1,1,FALSE,154,3,1,1,548,"$686,667", , , , , , ,https://p360images.realestateview.com.au/default/128-madagascar-drive-kings-park-nsw-2148-xl,"128 Madagascar Drive, Kings Park 2148 NSW is a house with 3 bedrooms and 1 bathroom. The block size of this property is 557 square metres. This house last sold for $601,000 in November 2014. ",128,Madagascar,Drive
155,128455,1447041,8 Vianney Crescent,Toongabbie,2146,NSW,-33.783601,150.956886,house,591,1,1,2,TRUE,155,4,1,2,591,"$758,333", , , , , , ,https://s3-ap-southeast-2.amazonaws.com/view-property-360-images/VM6W43_aML9GxsjUMMBFXnEHzhl0I-ygPjy8FO6vQgE1/8-vianney-crescent-toongabbie-nsw-2146_img0.jpg,"This is a house in Toongabbie, 2146 with 4 bedrooms and 1 bathroom. Its land area is 591 sqm. ",8,Vianney,Crescent
157,3465530,1490333,40 Newton Road,Blacktown,2148,NSW,-33.773234,150.903091,house,730,1,1,2,FALSE,157,3,1,2,735,"$621,167", , , , , , ,https://s3-ap-southeast-2.amazonaws.com/view-property-360-images/he0Bu_tnI8JGMVlZk3zs5fO0hH83rfDxBrWyV1hWA5w1/40-newton-road-blacktown-nsw-2148_img0.jpg,40 Newton Road is a house in Blacktown with 3 bedrooms and 1 bathroom. Its postcode is 2148. This property is on a 735 square metre block of land. ,40,Newton,Road
158,2126419,1496913,8 Andre Place,Blacktown,2148,NSW,-33.793938,150.90004,house,450,3,3,2,TRUE,158,0,0,0,450,"$701,667",Private Sale            , ,Apr-13, ,"$310,000", ,https://p360images.realestateview.com.au/default/8-andre-place-blacktown-nsw-2148-xl,"8 Andre Place, Blacktown 2148 NSW is a house. This property has 5 bedrooms and 3 bathrooms. The block size of this property is 450 sqm. When it last sold in April 2013, it went for $310,000. ",8,Andre,Place
159,2651318,1501117,75A Newton Rd,Blacktown,2148,NSW,-33.77625,150.90242,house,656,1,1,2,TRUE,159,4,1,2,652,"$741,667", , , , , , ,https://s3-ap-southeast-2.amazonaws.com/view-property-360-images/vsCjSyHHfG4RghOjnv3sLbE9AqDSYcOXG7lWSuxUyFo1/75a-newton-road-blacktown-nsw-2148_img0.jpg,"75A Newton Road, Blacktown 2148 NSW is a house. This property has 4 bedrooms and 1 bathroom. This is on a 652 square metre block of land. According to our records, this was last sold for $427,000 in June 2010. ",75A,Newton,Road
160,123959,1511307,131 North Rocks Road,North Rocks,2151,NSW,-33.785754,151.008156,house,728,3,3,3,TRUE,160,4,3,3,715,"$1,117,500", ,Private Sale            , ,Feb-98, ,"$27,500",https://s3-ap-southeast-2.amazonaws.com/view-property-360-images/-L0mKBDs3IAdPsFvuKPqqgnIjYLgdfZINT9roNTC1PQ1/131-north-rocks-road-north-rocks-nsw-2151_img0.jpg,"This is a house in North Rocks with 4 bedrooms and 3 bathrooms. Its postcode is 2151. This is on a 715 sqm block of land. The last sold price we have on record for this property is $186,000 which is from May 1992. ",131,North Rocks,Road
161,3700575,1517187,140 Lucas Road,Seven Hills,2147,NSW,-33.76724,150.92223,house,626,2,2,3,TRUE,161,4,2,3,634,"$784,667", ,Private Sale            , ,Jun-13, , ,https://s3-ap-southeast-2.amazonaws.com/view-property-360-images/k62IvHx6dPqARcggcWJ3z4ppwnzM16XeHt53qcYNkFs1/140-lucas-road-seven-hills-nsw-2147_img0.jpg,"This is a house in Seven Hills, 2147 with 3 bedrooms and 1 bathroom. This property is on a 634 square metre block of land. The last sold price we have on record for 140 Lucas Road is $420,000 which is from June 2013. ",140,Lucas,Road
164,37137,1526076,9 Capricorn Road,Kings Langley,2147,NSW,-33.75009,150.92698,house,,1,1,1,TRUE,164,3,1,1,344,"$665,000",Private Sale            , ,Oct-93, ,"$167,950", ,https://s3-ap-southeast-2.amazonaws.com/view-property-360-images/JGsbdzLiFBE-KzGFIb1hCHuZ9zboo86lzvxE43taOLI1/9-capricorn-road-kings-langley-nsw-2147_img0.jpg,"This is a house in Kings Langley with 3 bedrooms and 1 bathroom. Its postcode is 2147. The size of this block is 344 square metres. It last sold in 1993 for $167,950. ",9,Capricorn,Road
166,123957,1545554,11A Plymouth Avenue,North Rocks,2151,NSW,-33.777204,151.021143,house,696,2,2,2,TRUE,166,4,2,2,673,"$1,249,333", ,Private Sale            , ,Feb-09, , ,https://s3-ap-southeast-2.amazonaws.com/view-property-360-images/ELkaRzecbS1PybaCZsEjHN6nNU4z9Jhoj84tva6cYjQ1/11a-plymouth-avenue-north-rocks-nsw-2151_img0.jpg,"11A Plymouth Avenue, North Rocks 2151 NSW is a house. This property has 4 bedrooms and 2 bathrooms. The size of this block is 673 sqm. It was last sold in 2009 for $530,000. ",11A,Plymouth,Avenue
167,1995971,1548209,5 Calaby Street,Toongabbie,2146,NSW,-33.789406,150.96375,house,,2,2,2,TRUE,167,4,2,2,0,"$901,667",Private Sale            , ,Jul-15, ,"$900,000", ,https://s3-ap-southeast-2.amazonaws.com/view-property-360-images/Sh-oBMW6KoXV2ouYL28xTxrkMyqITJ_F7LbwYXChjmI1/5-calaby-street-toongabbie-nsw-2146_img0.jpg,"This is a unit in Toongabbie with 4 bedrooms and 2 bathrooms. Its postcode is 2146. According to our records, this last sold for $900,000 in July 2015. ",5,Calaby,Street
170,3085015,1568033,3 Walters Road,Blacktown,2148,NSW,-33.770546,150.89697,house,,1,1,3,TRUE,170,3,1,3,565,"$598,167",Auction            , ,Feb-89, ,"$207,000", ,https://p360images.realestateview.com.au/default/3-walters-road-blacktown-nsw-2148-xl,"This is a house in Blacktown, 2148 with 3 bedrooms and 1 bathroom. Its block size is 565 sqm. Last time it sold, it went for $207,000, which was in February 1989. ",3,Walters,Road
171,1828729,1569208,10 Sutton Street,Blacktown,2148,NSW,-33.780478,150.913015,house,566,1,1,1,TRUE,171,0,0,0,0,"$548,700", , , , , , ,https://p360images.realestateview.com.au/default/10-sutton-street-blacktown-nsw-2148-xl,This is a house in Blacktown with 4 bedrooms and 1 bathroom. Its postcode is 2148. The block size of this property is 566 sqm. ,10,Sutton,Street
172,123971,1586732,34 Iona Avenue,North Rocks,2151,NSW,-33.775681,151.017113,house,696,2,2,4,TRUE,172,3,2,4,665,"$1,066,667",Private Sale            , ,Feb-16, ,"$1,015,000", ,https://s3-ap-southeast-2.amazonaws.com/view-property-360-images/vDPEQdA0xUWT2yLTMXBBej6B2I8FXPxptOHvC_kwUJ81/34-iona-avenue-north-rocks-nsw-2151_img0.jpg,"34 Iona Avenue, North Rocks 2151 NSW is a house. It has 3 bedrooms and 2 bathrooms. This property is on a 665 sqm block of land. It was last sold in 2016 for $1,015,000. ",34,Iona,Avenue
175,37146,1688975,31 Stainsby Avenue,Kings Langley,2147,NSW,-33.755747,150.946547,house,696,2,2,2,TRUE,175,4,2,2,705,"$962,500",Private Sale            , ,Jun-91, ,"$200,000", ,https://s3-ap-southeast-2.amazonaws.com/view-property-360-images/QQXx0AUywAH3lSjvYfy7oQYl3maRmWBvEOASJyCMir01/31-stainsby-avenue-kings-langley-nsw-2147_img0.jpg,"31 Stainsby Avenue is a house in Kings Langley with 4 bedrooms and 2 bathrooms. Its postcode is 2147. The block size of this property is 705 square metres. When it last sold in June 1991, it went for $200,000. ",31,Stainsby,Avenue
176,128467,1700820,2 Greenmeadows Crescent,Toongabbie,2146,NSW,-33.783863,150.957848,house,558,1,1,1,TRUE,176,3,1,1,559,"$741,667", , , , , , ,https://s3-ap-southeast-2.amazonaws.com/view-property-360-images/d_-gPh62R61MleDf87YOcNryW8r4eFZR1C8L93j0zJ81/2-greenmeadows-crescent-toongabbie-nsw-2146_img0.jpg,The size of this block is 559 sqm. ,2,Greenmeadows,Crescent
177,1475364,1777341,16 Bernice Street,Seven Hills,2147,NSW,-33.760941,150.948199,house,556,1,1,0,TRUE,177,2,1,0,556,"$624,667", , , , , , ,https://s3-ap-southeast-2.amazonaws.com/view-property-360-images/94yXeGKDijAa_b1skxvmZ99_IhA2XN37Wu9CX4kNYeM1/16-bernice-street-seven-hills-nsw-2147_img0.jpg,"16 Bernice Street, Seven Hills 2147 NSW is a house. This property has 2 bedrooms and 1 bathroom. The land area of this property is 556 sqm. According to our data, this last sold for $335,000 in September 2011. ",16,Bernice,Street
184,3472369,1841818,18 Francine Street,Seven Hills,2147,NSW,-33.7669,150.93547,house,777,1,1,3,TRUE,184,3,1,3,773,"$665,000", , , , , , ,https://s3-ap-southeast-2.amazonaws.com/view-property-360-images/2eoJ-GeRWQ0UdZObyeggzXRM7t5ViT2JuMOKTBl_ZA41/18-francine-street-seven-hills-nsw-2147_img0.jpg,This is a house in Seven Hills with 3 bedrooms and 1 bathroom. Its postcode is 2147. Its land area is 773 square metres. ,18,Francine,Street
186,4108691,1889005,12 Sparkle Avenue,Blacktown,2148,NSW,-33.780823,150.89072,house,,1,1,2,FALSE,186,6,1,2,654,"$766,667", , , , , , ,https://s3-ap-southeast-2.amazonaws.com/view-property-360-images/BcUNjz3a9EhsEEDrS-42oFte0FY1ZxMKHm7YnL8PEU01/12-sparkle-avenue-blacktown-nsw-2148_img0.jpg,"12 Sparkle Avenue, Blacktown 2148 NSW is a house. It has 6 bedrooms and 1 bathroom. This property is on a 654 square metre block of land. ",12,Sparkle,Avenue
188,845505,1906062,45 Budgeree Road,Toongabbie,2146,NSW,-33.788425,150.95413,house,,3,3,1,TRUE,188,0,0,0,0,"$703,333", , , , , , ,https://p360images.realestateview.com.au/default/45-budgeree-road-toongabbie-nsw-2146-xl,"45 Budgeree Road, Toongabbie 2146 NSW is a house. This property has 4 bedrooms and 2 bathrooms. ",45,Budgeree,Road
189,1948609,1934506,173 Lucas Road,Lalor Park,2147,NSW,-33.76663,150.92393,house,765,1,1,4,TRUE,189,3,1,4,765,"$679,333",Private Sale            ,Private Sale            ,Oct-00,Jun-95,"$196,000","$105,000",https://s3-ap-southeast-2.amazonaws.com/view-property-360-images/iP9OXFyX3NHs2n8w6RYVR7dbSWajB3LChbQ5W7y865I1/173-lucas-road-lalor-park-nsw-2147_img0.jpg,"173 Lucas Road, Lalor Park 2147 NSW is a house. It has 3 bedrooms and 1 bathroom. Its land area is 765 square metres. This house previously sold for $196,000 in October 2000. ",173,Lucas,Road
199,1743759,2113876,10 Harvey Place,Toongabbie,2146,NSW,-33.790782,150.94869,house,,3,3,2,TRUE,199,4,3,2,449,"$871,667",Private Sale            , ,May-10, ,"$635,000", ,https://p360images.realestateview.com.au/default/10-harvey-place-toongabbie-nsw-2146-xl,"10 Harvey Place is a house in Toongabbie with 4 bedrooms and 3 bathrooms. Its postcode is 2146. It is on a block of land that is 449 sqm. According to our data, this last sold for $635,000 in May 2010. ",10,Harvey,Place
202,68462,2132476,62 Western Crescent,Blacktown,2148,NSW,-33.780318,150.898674,house,609,1,1,3,TRUE,202,3,1,3,609,"$622,167", , , , , , ,https://s3-ap-southeast-2.amazonaws.com/view-property-360-images/1BkBa_-uxcs7r75je7MyM3M4ocRBwX8N63ZQlX8dd2k1/62-western-crescent-blacktown-nsw-2148_img0.jpg,62 Western Crescent is a house in Blacktown with 3 bedrooms and 1 bathroom. Its postcode is 2148. This is on a 609 sqm block of land. ,62,Western,Crescent
203,378946,2146540,3 Alison Street,Seven Hills,2147,NSW,-33.770424,150.92754,house,746,1,1,2,TRUE,203,4,1,2,0,"$760,000",Private Sale            ,Private Sale            ,Aug-96,Nov-93,"$149,000","$145,000",https://p360images.realestateview.com.au/default/3-alison-street-seven-hills-nsw-2147-xl,"3 Alison Street, Seven Hills 2147 NSW is a house. It has 4 bedrooms and 1 bathroom. The block size is 750 sqm. Our records show that this was last sold in 1996 for $149,000. ",3,Alison,Street
204,3964096,2150074,6 Nerada Street,Blacktown,2148,NSW,-33.773968,150.89717,house,554,2,2,1,FALSE,204,3,2,1,554,"$674,000",Private Sale            ,Private Sale            ,Jun-14,Jun-97,"$547,000","$140,000",https://s3-ap-southeast-2.amazonaws.com/view-property-360-images/28cDz7xTaMBLvLrjEKLlno6r0G3WqDmANevOofYwTUA1/6-nerada-street-blacktown-nsw-2148_img0.jpg,"6 Nerada Street is a house in Blacktown with 3 bedrooms and 2 bathrooms. Its postcode is 2148. The land area is 554 square metres. The last time this property sold was in February 2015 for $548,000. ",6,Nerada,Street
206,3964120,2154371,4 Mary Street,Blacktown,2148,NSW,-33.759357,150.89359,house,556,1,1,2,FALSE,206,3,1,1,0,"$531,667", , , , , , ,https://s3-ap-southeast-2.amazonaws.com/view-property-360-images/31cweRu_-fVsZaXFouW3mEMibJZLtOkntZIFqltYJGM1/4-mary-street-blacktown-nsw-2148_img1.jpg,"4 Mary Street is a house in Blacktown with 3 bedrooms and 1 bathroom. Its postcode is 2148. This is on a 565 sqm block of land and the ground is level. It last sold in 2016 for $661,000. ",4,Mary,Street
211,123972,2186505,1 Meckiff Avenue,North Rocks,2151,NSW,-33.77937,151.023609,house,695,4,3,4,TRUE,211,4,3,3,668,"$1,475,167",Private Sale            , ,Jul-15, ,"$1,250,000", ,https://p360images.realestateview.com.au/default/1-meckiff-avenue-north-rocks-nsw-2151-xl,"1 Meckiff Avenue, North Rocks 2151 NSW is a house. It has 4 bedrooms and 3 bathrooms. The land area of this property is 668 sqm. This last sold for $1,250,000 in July 2015. ",1,Meckiff,Avenue
213,2316300,2201354,90 Lucas Road,Seven Hills,2147,NSW,-33.767648,150.927244,house,,1,1,1,TRUE,213,0,0,0,581,"$665,000", , , , , , ,https://p360images.realestateview.com.au/default/90-lucas-road-seven-hills-nsw-2147-xl,"This is a house in Seven Hills, 2147 with 3 bedrooms and 1 bathroom. This property is on a 581 square metre block of land. ",90,Lucas,Road
214,4169258,2226590,36A Toongabbie Road,Toongabbie,2146,NSW,-33.790577,150.94861,house,260,2,2,2,TRUE,214,3,2,1,262,"$652,500",Private Sale            , ,May-13, ,"$556,000", ,https://p360images.realestateview.com.au/default/-xl,"36A Toongabbie Road, Toongabbie 2146 NSW is a unit. It has 3 bedrooms and 2 bathrooms. This unit last sold for $556,000 in May 2013. ",36A,Toongabbie,Road
215,487083,2237918,2 Cartwright Crescent,Lalor Park,2147,NSW,-33.760686,150.937311,house,619,3,3,3,TRUE,215,4,3,3,610,"$816,333", , , , , , ,https://s3-ap-southeast-2.amazonaws.com/view-property-360-images/1CD7dw68kJ3mZr59L8KPY37UBY7z5_vnP16WdiJmbtA1/2-cartwright-crescent-lalor-park-nsw-2147_img0.jpg,"This is a house in Lalor Park, 2147 with 4 bedrooms and 3 bathrooms. The size of this block is 610 sqm. ",2,Cartwright,Crescent
216,3340471,2243679,79 Joseph Street,Blacktown,2148,NSW,-33.784364,150.902796,house,,2,2,1,TRUE,216,0,0,0,0,"$525,000", , , , , , ,https://p360images.realestateview.com.au/default/79-joseph-street-blacktown-nsw-2148-xl,This is on a 554 sqm block of land. ,79,Joseph,Street
217,974895,2244668,44 Derwent Parade,Blacktown,2148,NSW,-33.778294,150.88947,house,1252,2,2,3,FALSE,217,4,2,1,1259,"$795,833", , , , , , ,https://s3-ap-southeast-2.amazonaws.com/view-property-360-images/hXKl-O0sVoYLo2pFGb8McS9qQZIliR4tXSZgmfqS9eY1/44-derwent-parade-blacktown-nsw-2148_img0.jpg,"This is a house in Blacktown, 2148 with 4 bedrooms and 2 bathrooms. Its block size is 1259 sqm. ",44,Derwent,Parade
220,1885279,2276344,50 Whitby Road,Kings Langley,2147,NSW,-33.74914,150.94115,house,690,2,2,2,TRUE,220,3,2,2,712,"$863,333",Private Sale            ,Private Sale            ,Oct-10,Mar-99,"$515,000","$226,000",https://p360images.realestateview.com.au/default/50-whitby-road-kings-langley-nsw-2147-xl,"50 Whitby Road is a house in Kings Langley with 3 bedrooms and 2 bathrooms. Its postcode is 2147. Its block size is 712 sqm. The last time this property sold was in October 2010 for $515,000. ",50,Whitby,Road
222,1461474,2297209,5 May Walk,Lalor Park,2147,NSW,-33.760822,150.93562,house,626,1,1,1,TRUE,222,3,1,1,626,"$665,000",Private Sale            , ,Sep-12, ,"$355,000", ,https://p360images.realestateview.com.au/default/5-may-walk-lalor-park-nsw-2147-xl,"This is a house in Lalor Park with 3 bedrooms and 1 bathroom. Its postcode is 2147. The block size of this property is 626 sqm. Our records show that this was last sold in September 2012 for $355,000. ",5,May,Walk
223,4088858,2301340,6 Blain Street,Toongabbie,2146,NSW,-33.792482,150.958854,house,556,1,1,0,TRUE,223,4,1,0,563,"$810,017",Auction            , ,Jun-18, ,"$675,000", ,https://s3-ap-southeast-2.amazonaws.com/view-property-360-images/tcBJidpfRWtcQNjsQdjYOA7xhwm11jM0KwTNBwk2S3M1/6-blain-street-toongabbie-nsw-2146_img0.jpg,"6 Blain Street is a house in Toongabbie with 4 bedrooms and 1 bathroom. Its postcode is 2146. Its land area is 563 square metres. In June 2018 it sold for $675,000. ",6,Blain,Street
224,216225,2316364,52 Wall Park Avenue,Seven Hills,2147,NSW,-33.777084,150.9272,house,613,2,2,2,TRUE,224,4,2,2,562,"$754,600", , , , , , ,https://s3-ap-southeast-2.amazonaws.com/view-property-360-images/SXn1v1HC_ZdeQzweOllD_MUByd6Yvegb9b19n9Xg-_A1/52-wall-park-avenue-seven-hills-nsw-2147_img0.jpg,"52 Wall Park Avenue, Seven Hills 2147 NSW is a house. This property has 3 bedrooms and 1 bathroom. This property is on a 604 square metre block of land. Last time it sold was for $592,000, which was in 2017. ",52,Wall Park,Avenue
226,2238936,2349646,88A Isabella Street,North Parramatta,2151,NSW,-33.803994,151.020556,house,,2,2,2,TRUE,226,4,2,2,0,"$788,667",Private Sale            ,Private Sale            ,Sep-07,Sep-03,"$422,000","$460,500",https://s3-ap-southeast-2.amazonaws.com/view-property-360-images/KPh0i-yy8pVJX-nI9fUoIubbdC6w8PFP4pXxsO5g97w1/88a-isabella-street-north-parramatta-nsw-2151_img0.jpg,"This is a unit in North Parramatta with 4 bedrooms and 2 bathrooms. Its postcode is 2151. 88A Isabella Street last sold for $422,000 in September 2007. ",88A,Isabella,Street
233,591706,2390269,45 Duckmallois Ave,Blacktown,2148,NSW,-33.783071,150.909404,house,561,1,1,1,FALSE,233,3,1,1,561,"$597,167",Private Sale            ,Private Sale            ,Jan-11,Jan-07,"$355,000","$294,000",https://s3-ap-southeast-2.amazonaws.com/view-property-360-images/B3iKkdY24rWZxslE9Wvz8D4hQzoYJiQjiFkyFsfAxSg1/45-duckmallois-avenue-blacktown-nsw-2148_img0.jpg,"45 Duckmallois Avenue, Blacktown 2148 NSW is a house. It has 3 bedrooms and 1 bathroom. The block size of this property is 561 sqm. This house last sold for $355,000 in January 2011. ",45,Duckmallois,Avenue
235,324077,2409525,3 Jean Street,North Rocks,2151,NSW,-33.789912,151.002488,house,,1,1,3,TRUE,235,3,1,1,654,"$911,667", , , , , , ,https://s3-ap-southeast-2.amazonaws.com/view-property-360-images/V0RkdDkikGX1K8cRnGlBbtDIGZBHaPliKwX9PVUtChI1/3-jean-street-north-rocks-nsw-2151_img0.jpg,"3 Jean Street, North Rocks 2151 NSW is a house. It has 3 bedrooms and 1 bathroom. The size of this block is 653 square metres. ",3,Jean,Street
236,446435,2421404,4 Gardenset Grove,Blacktown,2148,NSW,-33.793095,150.90002,house,516,2,2,2,FALSE,236,4,2,2,516,"$704,600", ,Private Sale            , ,May-13, ,"$565,000",https://s3-ap-southeast-2.amazonaws.com/view-property-360-images/yg0j0XzlhPUlEqCEluNkalajlz7qzvmtTlgtV4jT5Gc1/4-gardenset-grove-blacktown-nsw-2148_img0.jpg,"4 Gardenset Grove, Blacktown 2148 NSW is a house. It has 4 bedrooms and 2 bathrooms. The block size is 516 sqm. This house previously sold for $565,000 in May 2013. ",4,Gardenset,Grove
240,2017878,2451658,164 Lucretia Road,Seven Hills,2147,NSW,-33.78424,150.92636,house,556,1,1,1,TRUE,240,3,1,1,559,"$698,333",Private Sale            , ,May-13, ,"$462,000", ,https://p360images.realestateview.com.au/default/164-lucretia-road-seven-hills-nsw-2147-xl,"164 Lucretia Road, Seven Hills 2147 NSW is a house. It has 3 bedrooms and 1 bathroom. The land area of this property is 559 sqm. The last time this property sold was in 2013 for $462,000. ",164,Lucretia,Road
249,4149616,2559604,55 Brabyn Street,North Parramatta,2151,NSW,-33.80385,151.01706,house,442,1,1,1,TRUE,249,2,1,0,455,"$1,013,333", , , , , , ,https://p360images.realestateview.com.au/default/55-brabyn-street-north-parramatta-nsw-2151-xl,Its block size is 455 square metres. ,55,Brabyn,Street
258,1456833,2727588,94 Cornelia Road,Toongabbie,2146,NSW,-33.789753,150.93982,house,706,1,1,1,TRUE,258,0,0,0,0,"$650,000", , , , , , ,https://p360images.realestateview.com.au/default/94-cornelia-road-toongabbie-nsw-2146-xl,"94 Cornelia Road, Toongabbie 2146 NSW is a house with 3 bedrooms and 1 bathroom. Its block size is 706 square metres. ",94,Cornelia,Road
259,2296190,2738857,17 Kent Street,Blacktown,2148,NSW,-33.764202,150.89978,house,,1,1,2,FALSE,259,3,1,2,633,"$621,167", ,Auction            , ,Apr-17, ,"$725,000",https://s3-ap-southeast-2.amazonaws.com/view-property-360-images/5S3qxOZ9LIj0l5UR4Z8VUSbk1NBYwp9SBgchzUh3GYM1/17-kent-street-blacktown-nsw-2148_img0.jpg,This is a house in Blacktown with 3 bedrooms and 1 bathroom. Its postcode is 2148. Its block size is 633 sqm. ,17,Kent,Street
262,37141,2761728,318 Seven Hills Road,Kings Langley,2147,NSW,-33.760523,150.95279,house,929,1,1,2,TRUE,262,3,1,2,928,"$679,333",Private Sale            , ,Apr-08, ,"$367,000", ,https://s3-ap-southeast-2.amazonaws.com/view-property-360-images/z34aJYaFhi9W2zIE9vqW4v9ecWbNHVTNWhS8f_rm_ho1/318-seven-hills-road-kings-langley-nsw-2147_img0.jpg,"This is a house in Kings Langley, 2147 with 3 bedrooms and 1 bathroom. Its land area is 928 sqm. Last time it sold, it went for $367,000, which was in 2008. ",318,Seven Hills,Road
265,4150287,2774621,45 Mill Drive,North Rocks,2151,NSW,-33.762955,151.0162,house,766,1,1,2,TRUE,265,3,1,2,764,"$1,081,667", ,Private Sale            , ,Aug-10, ,"$612,000",https://p360images.realestateview.com.au/default/45-mill-drive-north-rocks-nsw-2151-xl,"This is a house in North Rocks, 2151 with 3 bedrooms and 1 bathroom. Its block size is 764 sqm. According to our data, 45 Mill Drive was last sold for $612,000 in August 2010. ",45,Mill,Drive
266,4147624,2797324,10 Wattle Street,Blacktown,2148,NSW,-33.766144,150.88905,house,562,2,2,3,TRUE,266,4,2,3,564,"$718,109", , , , , , ,https://s3-ap-southeast-2.amazonaws.com/view-property-360-images/J7aOnVgsU9_d88IdPPeUqMdoWipOkXyCYymkj9Kh2uQ1/10-wattle-street-blacktown-nsw-2148_img0.jpg,"10 Wattle Street, Blacktown 2148 NSW is a house with 4 bedrooms and 2 bathrooms. The block size is 564 sqm. ",10,Wattle,Street
268,1233297,2798247,6 Burrell Parade,Blacktown,2148,NSW,-33.77895,150.88838,house,550,1,1,1,FALSE,268,3,1,4,553,"$602,333",Private Sale            ,Private Sale            ,Mar-16,Oct-13,"$545,000","$385,000",https://s3-ap-southeast-2.amazonaws.com/view-property-360-images/lGo4c566rCQweFtwSE6z67f_ymKQLmn7JnguxDVCX-s1/6-burrell-parade-blacktown-nsw-2148_img0.jpg,"6 Burrell Parade, Blacktown 2148 NSW is a house. This property has 3 bedrooms and 1 bathroom. The land area of this property is 553 sqm. In January 2016 this sold for $545,000. ",6,Burrell,Parade
269,1495440,2798363,33 Burke Road,Lalor Park,2147,NSW,-33.763659,150.934035,house,581,1,1,2,TRUE,269,3,1,2,582,"$665,000", , , , , , ,https://s3-ap-southeast-2.amazonaws.com/view-property-360-images/us-5ZhJyDhRH9-xdqdjJSMSD7-k24n2ZU0DwojbNNEQ1/33-burke-road-lalor-park-nsw-2147_img0.jpg,33 Burke Road is a house in Lalor Park with 3 bedrooms and 1 bathroom. Its postcode is 2147. It is on a block of land that is 582 sqm. ,33,Burke,Road
270,124447,2798915,7 Arjez Place,Marayong,2148,NSW,-33.746608,150.894915,house,562,2,2,1,TRUE,270,3,2,1,669,"$679,167", , , , , , ,https://s3-ap-southeast-2.amazonaws.com/view-property-360-images/rfYtM1MVd8HPofIMCml3fhzo2zxEgTFTJyCCgzATEvY1/7-arjez-place-marayong-nsw-2148_img0.jpg,"7 Arjez Place, Marayong 2148 NSW is a house with 3 bedrooms and 2 bathrooms. It has brick veneer walls. The land area is 669 square metres. ",7,Arjez,Place
271,68424,2829060,33 Allen Road,Blacktown,2148,NSW,-33.754462,150.919256,house,,2,2,2,FALSE,271,5,2,2,551,"$790,000", , , , , , ,https://s3-ap-southeast-2.amazonaws.com/view-property-360-images/42SSmayhHRa7HeKGojskL0xrPU5gzMCuHWxwPMt5f5o1/33-allen-road-blacktown-nsw-2148_img0.jpg,"This is a house in Blacktown, 2148 with 5 bedrooms and 2 bathrooms. The block size is 556 square metres. When it last sold in 2011, it went for $320,000. ",33,Allen,Road
279,2265610,2902929,1 Jura Place,Seven Hills,2147,NSW,-33.789314,150.92462,house,,2,2,1,TRUE,279,3,2,1,557,"$722,000", ,Private Sale            , ,Feb-16, , ,https://s3-ap-southeast-2.amazonaws.com/view-property-360-images/f0A8TZT0wxUEc-sT-yTsreOAiOjos4VW_r-M9QNIRxg1/1-jura-place-seven-hills-nsw-2147_img0.jpg,"1 Jura Place, Seven Hills 2147 NSW is a house. This property has 3 bedrooms and 2 bathrooms. The block size is 557 sqm. It was last sold in February 2016 for $740,000. ",1,Jura,Place
281,3540850,2921295,30 Shanke Crescent,Kings Langley,2147,NSW,-33.74305,150.93002,house,450,2,2,2,TRUE,281,4,2,2,450,"$958,333",Private Sale            , ,Aug-09, ,"$272,000", ,https://s3-ap-southeast-2.amazonaws.com/view-property-360-images/pNsikQq2f4GmB342Q54m4XvpL2eHgzUwMmZP-SALe801/30-shanke-crescent-kings-langley-nsw-2147_img0.jpg,"This is a house in Kings Langley, 2147 with 4 bedrooms and 2 bathrooms. This property is on a 450 square metre block of land. It was last sold in August 2009 for $272,000. ",30,Shanke,Crescent
282,3472368,2931688,9 Ruby Place,Seven Hills,2147,NSW,-33.78739,150.92471,house,645,1,1,2,TRUE,282,3,1,1,648,"$680,000",Private Sale            ,Private Sale            ,Jan-00,May-97,"$202,000","$155,000",https://s3-ap-southeast-2.amazonaws.com/view-property-360-images/yBzr6Vh94WqMiu9Eten2u_rZkJc-4Zcvx5hZcIEqZow1/9-ruby-place-seven-hills-nsw-2147_img0.jpg,"9 Ruby Place, Seven Hills 2147 NSW is a house. It has 3 bedrooms and 1 bathroom. Its block size is 648 sqm. When it last sold in 2000, it went for $202,000. ",9,Ruby,Place
283,216242,2933034,11 Haynes Avenue,Seven Hills,2147,NSW,-33.76858,150.92815,house,,2,2,1,FALSE,283,4,2,1,745,"$784,667", , , , , , ,https://s3-ap-southeast-2.amazonaws.com/view-property-360-images/uDMtnY2hvSBgCmXX-YRXbH2QphHM0zy6SygqZTTkZMc1/11-haynes-avenue-seven-hills-nsw-2147_img0.jpg,"11 Haynes Avenue, Seven Hills 2147 NSW is a house. This property has 4 bedrooms and 2 bathrooms. It is on a block of land that is 745 square metres. The last time this property sold was in April 2017 for $715,000. ",11,Haynes,Avenue
285,4077250,2939948,30 Jean Street,Seven Hills,2147,NSW,-33.772499,150.929251,house,664,1,1,2,TRUE,285,3,1,2,672,"$754,667", ,Private Sale            , ,Jun-01, ,"$7,170",https://s3-ap-southeast-2.amazonaws.com/view-property-360-images/LVAtN9cAqRjC0wDl7hooUZWI_j48PXBkf9ujLgKYRJo1/30-jean-street-seven-hills-nsw-2147_img0.jpg,"30 Jean Street, Seven Hills 2147 NSW has 3 bedrooms and 1 bathroom. It is a house with brick veneer walls. It is on a block of land that is 672 sqm. It last sold in 2018 for $780,000. ",30,Jean,Street
292,4072496,2983707,37 Wilga Street,Blacktown,2148,NSW,-33.77902,150.8861,house,,2,2,1,FALSE,292,4,2,1,546,"$792,333", , , , , , ,https://s3-ap-southeast-2.amazonaws.com/view-property-360-images/8msBAOElmfxD9_W6dcHHf5ifAkVFlAIZz4AhPkPGex81/37-wilga-street-blacktown-nsw-2148_img0.jpg,"This is a house in Blacktown, 2148 with 4 bedrooms and 2 bathrooms. The block size of this property is 546 sqm. In April 2013 this property sold for $435,000. ",37,Wilga,Street
295,4115964,3000956,234B North Rocks Road,North Rocks,2151,NSW,-33.775348,151.017303,house,,2,2,2,TRUE,295,3,2,1,673,"$947,667",Private Sale            ,Private Sale            ,Jan-11,Jun-91,"$560,800","$168,000",https://p360images.realestateview.com.au/default/234b-north-rocks-road-north-rocks-nsw-2151-xl,"This is a house in North Rocks with 3 bedrooms and 2 bathrooms. Its postcode is 2151. The land area of this property is 673 square metres. According to our data, 234B North Rocks Road was last sold for $560,800 in January 2011. ",234B,North Rocks,Road
300,123975,3031651,18 Ebony Avenue,North Rocks,2151,NSW,-33.769904,151.030313,house,690,2,2,1,TRUE,300,3,2,1,701,"$1,188,667", , , , , , ,https://s3-ap-southeast-2.amazonaws.com/view-property-360-images/Ib3DeKc--L00YZZP42zCbQhV_O_D0k1tA2MBlD1Dlf41/18-ebony-avenue-north-rocks-nsw-2151_img0.jpg,"This is a house in North Rocks with 3 bedrooms and 2 bathrooms. Its postcode is 2151. The land area of this property is 701 square metres. It last sold for $465,000 in February 2002. ",18,Ebony,Avenue
301,1568828,3032525,29 McClean Street,Blacktown,2148,NSW,-33.760021,150.886612,house,663,2,2,2,TRUE,301,3,1,3,672,"$560,000",Private Sale            ,Private Sale            ,Feb-09,Sep-02,"$337,650","$275,000",https://p360images.realestateview.com.au/default/29-mcclean-street-blacktown-nsw-2148-xl,"This is a house in Blacktown with 5 bedrooms and 2 bathrooms. Its postcode is 2148. Its land area is 664 sqm. In February 2009 it sold for $337,650. ",29,McClean,Street
303,222506,3048253,84 Aldgate Street,Prospect,2148,NSW,-33.797684,150.91884,house,607,3,3,4,TRUE,303,4,3,4,565,"$883,333", , , , , , ,https://s3-ap-southeast-2.amazonaws.com/view-property-360-images/TDN5pwQRO2nX0hOEjecMDtMY-Rksxv04tEMsSSOyvUY1/84-aldgate-street-prospect-nsw-2148_img0.jpg,"84 Aldgate Street, Prospect 2148 NSW is a house with 4 bedrooms and 3 bathrooms. The land area is 565 square metres. ",84,Aldgate,Street
304,51109,3049403,2 Leven Place,Northmead,2152,NSW,-33.783403,151.003761,house,,2,2,1,TRUE,304,5,2,1,0,"$987,233",Private Sale            , ,Jul-18, ,"$1,100,000", ,https://s3-ap-southeast-2.amazonaws.com/view-property-360-images/rA9PIIoLYzx_F0fS1KqR6l-n2XHNFDBUDhdtGO_0HPo1/2-leven-place-northmead-nsw-2152_img0.jpg,"This is a house in Northmead, 2152 with 5 bedrooms and 2 bathrooms. The block size of this property is 696 sqm. It last sold in 2018 for $1,100,000. ",2,Leven,Place
306,222459,3071040,20 Bromfield Avenue,Prospect,2148,NSW,-33.797076,150.924326,house,1031,2,2,4,TRUE,306,4,2,4,1045,"$734,600",Private Sale            ,Private Sale            ,Feb-07,Feb-98,"$520,000","$241,500",https://s3-ap-southeast-2.amazonaws.com/view-property-360-images/OnAGKiiER3q_rF1sBe2E-V3qdReQGdQ8yjg5sZ-bAXY1/20-bromfield-avenue-prospect-nsw-2148_img0.jpg,"20 Bromfield Avenue, Prospect 2148 NSW is a house. It has 4 bedrooms and 2 bathrooms. This property is on a 1045 square metre block of land. Last time it sold was for $520,000, which was in February 2007. ",20,Bromfield,Avenue
309,2991196,3102551,20A Vermont Court,Seven Hills,2147,NSW,-33.784725,150.923194,house,277,2,2,1,TRUE,309,4,2,1,0,"$686,267", ,Private Sale            , ,Feb-14, , ,https://s3-ap-southeast-2.amazonaws.com/view-property-360-images/W7LBHGMCfJM36f80uRyu52qzL6nHj3TvmirTEgX4DL01/20a-vermont-court-seven-hills-nsw-2147_img0.jpg,"20A Vermont Court, Seven Hills 2147 NSW is a house with 4 bedrooms and 2 bathrooms. This property is on a 281 square metre block of land. Our records show that this was last sold in February 2014 for $520,000. ",20A,Vermont,Court
310,68301,3113659,51 Burdett Crescent,Blacktown,2148,NSW,-33.767998,150.88998,house,,3,3,2,FALSE,310,6,3,2,568,"$856,000", , , , , , ,https://s3-ap-southeast-2.amazonaws.com/view-property-360-images/r8nlCR4ZYhs-SXGl_TaBTdURkuHfXFbO6GXgU_jxsc41/51-burdett-crescent-blacktown-nsw-2148_img0.jpg,This is a house in Blacktown with 4 bedrooms and 3 bathrooms. Its postcode is 2148. It is on a block of land that is 568 square metres. ,51,Burdett,Crescent
312,4159318,3129986,55 Pitt Street,Parramatta,2150,NSW,-33.825367,150.9944,house,331,2,2,3,TRUE,312,4,2,3,623,"$988,333", , , , , , ,https://s3-ap-southeast-2.amazonaws.com/view-property-360-images/27umilKTf7G9rSQsdbjaseQZrVrEiHlCcPtgc3wqkMY1/55-pitt-street-parramatta-nsw-2150_img0.jpg,"55 Pitt Street, Parramatta 2150 NSW is a unit. It has 4 bedrooms and 3 bathrooms. In November 2009 this address sold for $382,500. ",55,Pitt,Street
314,4077247,3147065,30 Myuna Crescent,Seven Hills,2147,NSW,-33.786519,150.924401,house,601,2,2,2,TRUE,314,3,2,2,598,"$720,333", ,Private Sale            , ,Mar-14, ,"$625,000",https://s3-ap-southeast-2.amazonaws.com/view-property-360-images/UM-AGxq_jxiQ5Cajl1-zyzg6ZFkb1XkiPMRyqgN34uw1/30-myuna-crescent-seven-hills-nsw-2147_img0.jpg,"30 Myuna Crescent, Seven Hills 2147 NSW is a house. It has 3 bedrooms and 2 bathrooms. The size of this block is 598 sqm. According to our records, this was last sold for $800,000 in June 2018. ",30,Myuna,Crescent
315,1461780,3160313,18 Ridgemont Place,Kings Park,2148,NSW,-33.738937,150.90964,house,730,2,2,2,TRUE,315,4,2,2,732,"$741,667",Private Sale            ,Private Sale            ,Dec-08,Jun-06,"$400,000","$480,000",https://s3-ap-southeast-2.amazonaws.com/view-property-360-images/InQK_tyBZuTrI21MSRTakujzBifcYkkkE6AwnMZUu9M1/18-ridgemont-place-kings-park-nsw-2148_img0.jpg,"This is a house in Kings Park, 2148 with 4 bedrooms and 2 bathrooms. This is on a 731 sqm block of land. It was last sold in 2008 for $400,000. ",18,Ridgemont,Place
316,68276,3167563,40 Anthony Street,Blacktown,2148,NSW,-33.750648,150.920736,house,1043,3,3,3,TRUE,316,3,3,3,1045,"$751,667", ,Private Sale            , ,Jun-99, ,"$185,250",https://s3-ap-southeast-2.amazonaws.com/view-property-360-images/VomzEhpxB5oVn8DH7lO9Hd6GFEEfOKNCLGgDh7scT7g1/40-anthony-street-blacktown-nsw-2148_img0.jpg,"40 Anthony Street, Blacktown 2148 NSW is a house. This property has 3 bedrooms and 3 bathrooms. The block size is 1043 square metres. In June 1999 this property sold for $185,250. ",40,Anthony,Street
317,4092489,3168308,17 Love St,Blacktown,2148,NSW,-33.75829,150.890642,house,752,1,1,1,FALSE,317,3,1,1,0,"$531,667", , , , , , ,https://s3-ap-southeast-2.amazonaws.com/view-property-360-images/4DuKXUhpbTTsW_rU2TG_Io0ox-sFoq0gq435NVhVpvA1/17-love-street-blacktown-nsw-2148_img0.jpg,"17 Love Street is a house in Blacktown with 3 bedrooms and 1 bathroom. Its postcode is 2148. It is on a block of land that is 757 sqm. It last sold for $699,000 in June 2018. ",17,Love,Street
318,123974,3173991,48 Plymouth Ave,North Rocks,2151,NSW,-33.779605,151.018886,house,715,2,2,3,TRUE,318,4,2,3,715,"$1,084,333", , , , , , ,https://s3-ap-southeast-2.amazonaws.com/view-property-360-images/3QOILk565erGct9DMNbGe4Hgb3osN_C7bKIiJvyJg8I1/48-plymouth-avenue-north-rocks-nsw-2151_img0.jpg,"48 Plymouth Avenue, North Rocks 2151 NSW is a house with 4 bedrooms and 2 bathrooms. Its block size is 715 square metres. ",48,Plymouth,Avenue
320,4075577,3183588,4 Balmoral Road,Northmead,2152,NSW,-33.794496,150.994697,house,,3,3,5,TRUE,320,5,3,5,615,"$1,229,333",Private Sale            , ,May-18, ,"$1,050,000", ,https://s3-ap-southeast-2.amazonaws.com/view-property-360-images/ZV7b2t5cSqYEvuomtaLCI9vdNaAE48xq-wnVGEYKW9w1/4-balmoral-road-northmead-nsw-2152_img0.jpg,"This is a house in Northmead, 2152 with 5 bedrooms and 3 bathrooms. The land area of this property is 615 square metres. The last sold price we have on record for 4 Balmoral Road Northmead is $1,050,000 which is from May 2018. ",4,Balmoral,Road
321,676710,3187716,13 Paroo Place,Seven Hills,2147,NSW,-33.789177,150.933146,house,626,2,2,2,TRUE,321,3,2,2,626,"$720,333", , , , , , ,https://s3-ap-southeast-2.amazonaws.com/view-property-360-images/6YL48Baac2A9EAR48XUKi6W1gNDfE9lRuZl-jt8v5ks1/13-paroo-place-seven-hills-nsw-2147_img0.jpg,"This is a house in Seven Hills, 2147 with 3 bedrooms and 2 bathrooms. It is on a block of land that is 626 square metres. ",13,Paroo,Place
322,51088,3187951,12 Kira Avenue,Northmead,2152,NSW,-33.77304,151.002662,house,697,1,1,2,TRUE,322,4,1,2,695,"$952,000", , , , , , ,https://s3-ap-southeast-2.amazonaws.com/view-property-360-images/M4DhFFC_w5Tj0MxLrIImTbhTzd196QWlW5eYkhNYsNc1/12-kira-avenue-northmead-nsw-2152_img0.jpg,"12 Kira Avenue, Northmead 2152 NSW is a house with 4 bedrooms and 1 bathroom. It is on a block of land that is 695 sqm. ",12,Kira,Avenue
325,2146975,3204984,9 Meckiff Avenue,North Rocks,2151,NSW,-33.779392,151.022424,house,,2,2,2,TRUE,325,3,2,2,679,"$1,088,667",Private Sale            , ,Jul-97, ,"$225,000", ,https://s3-ap-southeast-2.amazonaws.com/view-property-360-images/VNAT4GM-CZHWuhmDqsUXXQM6SLKstau8VtJhEKVgCyQ1/9-meckiff-avenue-north-rocks-nsw-2151_img0.jpg,"This is a house in North Rocks with 3 bedrooms and 2 bathrooms. Its postcode is 2151. This is on a 679 square metre block of land. According to our records, this was last sold for $225,000 in July 1997. ",9,Meckiff,Avenue
327,124438,3228071,4 Caratel Crescent,Marayong,2148,NSW,-33.746581,150.885071,house,,1,1,1,TRUE,327,3,1,1,558,"$607,333",Private Sale            ,Private Sale            ,Dec-99,May-97,"$185,000","$135,000",https://s3-ap-southeast-2.amazonaws.com/view-property-360-images/fQoLY2o_sUnwcCXx1IMTCtD6fD76Lszm727mPKz6F8E1/4-caratel-crescent-marayong-nsw-2148_img6.jpg,"4 Caratel Crescent, Marayong 2148 NSW is a house with 3 bedrooms and 1 bathroom. It has brick veneer walls. This is on a 558 square metre block of land. This house last sold for $185,000 in December 1999. ",4,Caratel,Crescent
333,4118578,3306759,22 Tucks Road,Toongabbie,2146,NSW,-33.783276,150.95839,house,557,2,2,2,TRUE,333,3,2,2,557,"$774,333",Private Sale            , ,Feb-11, ,"$455,000", ,https://s3-ap-southeast-2.amazonaws.com/view-property-360-images/VZDiLdACcDdqhp0Pfm1QJnRyGyg-k1qGywu_nACW8qc1/22-tucks-road-toongabbie-nsw-2146_img0.jpg,"22 Tucks Road is a house in Toongabbie with 3 bedrooms and 2 bathrooms. Its postcode is 2146. The size of this block is 557 square metres. Our records show that this was last sold in 2011 for $455,000. ",22,Tucks,Road
335,1140656,3318829,19 Eggleton Street,Blacktown,2148,NSW,-33.748739,150.920489,house,889,2,2,4,TRUE,335,0,0,0,0,"$688,333", , , , , , ,https://p360images.realestateview.com.au/default/19-eggleton-street-blacktown-nsw-2148-xl,"19 Eggleton Street, Blacktown 2148 NSW is a house. It has 4 bedrooms and 2 bathrooms. This is on a 889 square metre block of land. ",19,Eggleton,Street
336,3712864,3331905,5 Thomas Kelly Crescent,Lalor Park,2147,NSW,-33.762648,150.936489,house,588,1,1,1,TRUE,336,3,1,1,593,"$665,000",Private Sale            , ,Sep-07, ,"$300,000", ,https://s3-ap-southeast-2.amazonaws.com/view-property-360-images/q5b6r-ERUrEDAgclZccamfTU7PU2xCcODjra_b4VYss1/5-thomas-kelly-crescent-lalor-park-nsw-2147_img0.jpg,"5 Thomas Kelly Crescent, Lalor Park 2147 NSW is a house with 3 bedrooms and 1 bathroom. Its land area is 593 square metres. In September 2007 this sold for $300,000. ",5,Thomas Kelly,Crescent
337,214307,3333189,8 Burke Road,Lalor Park,2147,NSW,-33.765217,150.93753,house,607,1,1,1,TRUE,337,3,1,1,589,"$665,000", , , , , , ,https://s3-ap-southeast-2.amazonaws.com/view-property-360-images/KW0z_-mwYcoGgVcg0OdXFs3M_PnN3FT8_SupfH5uiLk1/8-burke-road-lalor-park-nsw-2147_img0.jpg,"This is a house in Lalor Park, 2147 with 3 bedrooms and 1 bathroom. The block size of this property is 589 square metres. In April 2016 this home sold for $590,000. ",8,Burke,Road
338,657539,3355012,38 Nathaniel Parade,Kings Langley,2147,NSW,-33.751346,150.929861,house,697,2,2,2,TRUE,338,4,2,2,713,"$952,500",Private Sale            ,Private Sale            ,Jul-05,May-89,"$497,000","$225,000",https://s3-ap-southeast-2.amazonaws.com/view-property-360-images/ek2tPLdpNuGehr_5VA8ylVV5XWfWYK8JEnJFkDu0EmU1/38-nathaniel-parade-kings-langley-nsw-2147_img0.jpg,"This is a house in Kings Langley, 2147 with 4 bedrooms and 2 bathrooms. This property is on a 713 square metre block of land. Our records show that this was last sold in July 2005 for $497,000. ",38,Nathaniel,Parade
339,305431,3356093,19 Kerry Road,Blacktown,2148,NSW,-33.770563,150.888129,house,,3,3,3,TRUE,339,4,2,1,0,"$706,776", ,Auction            , ,Jul-18, , ,https://s3-ap-southeast-2.amazonaws.com/view-property-360-images/8AtxyrWVAbpZSAT5kwbDF01aaE5Usp23oHK1SolmeMY1/19-kerry-road-blacktown-nsw-2148_img0.jpg,"19 Kerry Road is a house in Blacktown with 6 bedrooms and 3 bathrooms. Its postcode is 2148. This property is on a 609 sqm block of land. Last time it sold was for $791,000, which was in 2018. ",19,Kerry,Road
341,4160876,3372193,190 Bungarribee Road,Blacktown,2148,NSW,-33.77675,150.90005,house,556,1,1,2,FALSE,341,3,1,2,556,"$621,167",Private Sale            , ,May-97, ,"$102,000", ,https://s3-ap-southeast-2.amazonaws.com/view-property-360-images/wz97IOT8SYli8LxPWb6dxoYVCWF99Uggwwokl7zRjis1/190-bungarribee-road-blacktown-nsw-2148_img0.jpg,"The land area of this property is 556 square metres. It was last sold in 1997 for $102,000. ",190,Bungarribee,Road
342,1879648,3376487,12 Potter Street,Old Toongabbie,2146,NSW,-33.792261,150.967009,house,,3,3,1,TRUE,342,3,2,1,567,"$743,333",Private Sale            , ,Nov-13, ,"$530,000", ,https://s3-ap-southeast-2.amazonaws.com/view-property-360-images/JgR3aFlZsTBhw1lF3SeTBIG8PE5IO8ZjW9n08pf8iE01/12-potter-street-old-toongabbie-nsw-2146_img0.jpg,"12 Potter Street is a house in Old Toongabbie with 3 bedrooms and 2 bathrooms. Its postcode is 2146. This property is on a 567 sqm block of land. This house was last sold for $530,000 in November 2013. ",12,Potter,Street
347,4157056,3441733,53 Janice Street,Seven Hills,2147,NSW,-33.770317,150.92134,house,1138,1,1,1,TRUE,347,3,1,1,1164,"$692,500", , , , , , ,https://s3-ap-southeast-2.amazonaws.com/view-property-360-images/0TcQOWWPehNlMIFeq-8Up18qTGgEgnjpxNik3mqkxLI1/53-janice-street-seven-hills-nsw-2147_img0.jpg,This property is on a 1164 square metre block of land. ,53,Janice,Street
350,3775820,3490487,20 John Dwyer Road,Lalor Park,2147,NSW,-33.762737,150.93304,house,588,2,2,2,TRUE,350,3,2,1,0,"$717,667", ,Private Sale            , ,Oct-16, ,"$615,000",https://p360images.realestateview.com.au/default/20-john-dwyer-road-lalor-park-nsw-2147-xl,"20 John Dwyer Road, Lalor Park 2147 NSW is a house with 3 bedrooms and 2 bathrooms. The block size of this property is 577 sqm. This house previously sold for $615,000 in August 2016. ",20,John Dwyer,Road
352,2319373,3526053,30 Mitchell Street,Lalor Park,2147,NSW,-33.765324,150.92323,house,767,2,2,6,TRUE,352,5,2,4,768,"$790,000", , , , , , ,https://s3-ap-southeast-2.amazonaws.com/view-property-360-images/i3LY5csHLB_2LRVUktlDqrgW6ZgI3DuN4oPXB_9VvDU1/30-mitchell-street-lalor-park-nsw-2147_img0.jpg,Its block size is 768 sqm. ,30,Mitchell,Street
353,214287,3547242,4 Shepherd Street,Lalor Park,2147,NSW,-33.757098,150.92812,house,581,1,1,1,TRUE,353,3,1,1,587,"$681,667",Private Sale            , ,Sep-15, ,"$590,000", ,https://p360images.realestateview.com.au/default/4-shepherd-street-lalor-park-nsw-2147-xl,"This is a house in Lalor Park, 2147 with 3 bedrooms and 1 bathroom. It is on a block of land that is 587 square metres. This house last sold for $590,000 in September 2015. ",4,Shepherd,Street
356,4175657,3596508,20 William Street,Seven Hills,2147,NSW,-33.77826,150.93599,house,760,2,2,3,FALSE,356,2,0,0,760,"$626,667",Private Sale            ,Auction            ,Jan-99,Nov-97,"$198,400","$148,000",https://p360images.realestateview.com.au/default/20-william-street-seven-hills-nsw-2147-xl,"The block size of this property is 760 sqm. According to our data, 20 William Street was last sold for $198,400 in January 1999. ",20,William,Street
363,216204,3669083,11 Rudolf Road,Seven Hills,2147,NSW,-33.786351,150.93298,house,,2,2,2,TRUE,363,4,2,2,557,"$786,667", ,Private Sale            , ,Jul-18, , ,https://s3-ap-southeast-2.amazonaws.com/view-property-360-images/iqCi3GAQNdGX5GsojwDHlOu9VcaEzIuMkERMp2Pn9IM1/11-rudolf-road-seven-hills-nsw-2147_img0.jpg,"This is a house in Seven Hills, 2147 with 4 bedrooms and 2 bathrooms. The size of this block is 557 sqm. The last sold price we have on record for this address is $860,000 which is from July 2018. ",11,Rudolf,Road
365,68496,3703498,15 Stableford Street,Blacktown,2148,NSW,-33.757825,150.903428,house,,2,2,1,TRUE,365,0,0,0,0,"$645,000", , , , , , ,https://p360images.realestateview.com.au/default/15-stableford-street-blacktown-nsw-2148-xl,This is a house in Blacktown with 3 bedrooms and 2 bathrooms. Its postcode is 2148. Its block size is 185 sqm. ,15,Stableford,Street
366,2855571,3716857,6 Rifle Range Road,Northmead,2152,NSW,-33.774157,151.003593,house,708,2,2,4,TRUE,366,3,0,0,0,"$759,000",Private Sale            , ,Nov-01, ,"$430,979", ,https://p360images.realestateview.com.au/default/6-rifle-range-road-northmead-nsw-2152-xl,"The last sold price we have on record for this address is $430,979 which is from November 2001. ",6,Rifle Range,Road
371,3527704,3774894,118 Crudge Road,Marayong,2148,NSW,-33.754035,150.899953,house,,1,1,3,FALSE,371,3,1,2,561,"$544,000",Private Sale            ,Private Sale            ,Feb-03,Feb-00,"$328,000","$221,000",https://s3-ap-southeast-2.amazonaws.com/view-property-360-images/yuCgPnfv9ek6OH_Li2_RS3OCec1S0USlrgJWpxbNf2Y1/118-crudge-road-marayong-nsw-2148_img0.jpg,"This is a house in Marayong with 3 bedrooms and 1 bathroom. Its postcode is 2148. This property is on a 561 sqm block of land. 118 Crudge Road last sold for $328,000 in 2003. ",118,Crudge,Road
374,68429,3824610,83 Doonside Crescent,Blacktown,2148,NSW,-33.764449,150.887302,house,,2,2,2,FALSE,374,4,1,2,0,"$676,667", , , , , , ,https://s3-ap-southeast-2.amazonaws.com/view-property-360-images/VHHpPXsr_KM1DT2T8FbJDJ-63ZWRaJX4N4M11rAF8Mc1/83-doonside-crescent-blacktown-nsw-2148_img0.jpg,This is a house in Blacktown with 6 bedrooms and 2 bathrooms. Its postcode is 2148. This property is on a 708 sqm block of land. ,83,Doonside,Crescent
375,214310,3825458,9 Blaxland Street,Lalor Park,2147,NSW,-33.763577,150.92706,house,594,3,3,2,TRUE,375,2,2,1,0,"$984,333", , , , , , ,https://s3-ap-southeast-2.amazonaws.com/view-property-360-images/rCY3pe24kw9XHzuFKwMRn6HrlSD-PdBjsIkvWuLrG_E1/9-blaxland-street-lalor-park-nsw-2147_img0.jpg,"9 Blaxland Street, Lalor Park 2147 NSW is a house with 5 bedrooms and 3 bathrooms. It has double brick walls. This property is a level block of land that is 600 metres squared. This last sold for $670,000 in June 2015. ",9,Blaxland,Street
382,3969074,3895343,16 Carole Street,Seven Hills,2147,NSW,-33.762123,150.94763,house,556,1,1,2,TRUE,382,3,1,2,561,"$676,667", , , , , , ,https://s3-ap-southeast-2.amazonaws.com/view-property-360-images/uWD9gXLKAMARbpFMzaiuVw7sDO_pmt_kz6WGuJ3ev_U1/16-carole-street-seven-hills-nsw-2147_img0.jpg,"16 Carole Street, Seven Hills 2147 NSW is a house with 3 bedrooms and 1 bathroom. This is on a 561 sqm block of land. ",16,Carole,Street
385,4129505,3923970,39 Koorabel Road,Lalor Park,2147,NSW,-33.76276,150.92664,house,689,2,2,4,TRUE,385,3,2,0,681,"$633,333",Private Sale            ,Private Sale            ,Apr-11,Aug-59,"$75,000","$6,000",https://s3-ap-southeast-2.amazonaws.com/view-property-360-images/zxe44-_85qnJWw7vxco_cisfJe1nfsD9beU6ZD6xt_E1/39-koorabel-road-lalor-park-nsw-2147_img0.jpg,"This is a house in Lalor Park, 2147 with 3 bedrooms and 2 bathrooms. The land area of this property is 681 square metres. The last time this property sold was in April 2011 for $75,000. ",39,Koorabel,Road
388,458441,3930883,25 Geneva Crescent,Seven Hills,2147,NSW,-33.787968,150.9359,house,,2,2,3,FALSE,388,0,0,0,898,"$650,000",Private Sale            , ,Aug-91, ,"$180,000", ,https://p360images.realestateview.com.au/default/25-geneva-crescent-seven-hills-nsw-2147-xl,"The size of this block is 898 square metres. 25 Geneva Crescent Seven Hills last sold for $180,000 in 1991. ",25,Geneva,Crescent
393,4162827,3979418,7 Lombard Place,Prospect,2148,NSW,-33.79788,150.92271,house,660,2,2,2,TRUE,393,4,2,2,670,"$734,600", ,Private Sale            , ,Apr-99, ,"$275,000",https://s3-ap-southeast-2.amazonaws.com/view-property-360-images/CeBqJMMRY9NdH9xF1kVBvyVEk9azb2gihdxPywPZhd41/7-lombard-place-prospect-nsw-2148_img0.jpg,"7 Lombard Place, Prospect 2148 NSW is a house. This property has 4 bedrooms and 2 bathrooms. This is on a 670 square metre block of land. In April 1999 this home sold for $275,000. ",7,Lombard,Place
394,502843,4005067,2 Hadrian Avenue,Blacktown,2148,NSW,-33.787143,150.917824,house,556,2,2,1,TRUE,394,4,2,1,547,"$704,600",Private Sale            ,Private Sale            ,Nov-10,May-00,"$398,000","$97,500",https://s3-ap-southeast-2.amazonaws.com/view-property-360-images/krDJBXTHCnJPIuXuoas6pq-ITGRkbl7A2gKMt61n1ng1/2-hadrian-avenue-blacktown-nsw-2148_img0.jpg,"2 Hadrian Avenue, Blacktown 2148 NSW is a house with brick veneer walls. This property has 4 bedrooms and 2 bathrooms. Its land area is 547 sqm. The last sold price we have on record for this property is $398,000 which is from November 2010. ",2,Hadrian,Avenue
400,3969086,4061787,339 Blacktown Road,Seven Hills,2147,NSW,-33.796265,150.92577,house,577,1,1,4,TRUE,400,0,0,0,0,"$628,333", , , , , , ,https://p360images.realestateview.com.au/default/339-blacktown-road-seven-hills-nsw-2147-xl,The land area of this property is 577 sqm. ,339,Blacktown,Road
401,996222,4063012,18 Terry Avenue,Seven Hills,2147,NSW,-33.768076,150.921389,house,581,2,2,1,TRUE,401,3,2,1,581,"$653,333",Private Sale            ,Private Sale            ,Jul-18,Jul-02,"$753,000","$260,000",https://s3-ap-southeast-2.amazonaws.com/view-property-360-images/gopnG3FvQMZDF4cc7XCTx9sSndlrO8-sPrxgyjZYgQE1/18-terry-avenue-seven-hills-nsw-2147_img0.jpg,"18 Terry Avenue, Seven Hills 2147 NSW is a house. It has 3 bedrooms and 2 bathrooms. This property is on a 581 square metre block of land. Last time it sold, it went for $260,000, which was in July 2002. ",18,Terry,Avenue
406,3664642,4152195,69 Sarsfield Street,Blacktown,2148,NSW,-33.762688,150.916347,house,556,3,3,1,TRUE,406,4,3,6,0,"$948,333", , , , , , ,https://s3-ap-southeast-2.amazonaws.com/view-property-360-images/qpyYbm5e4iP_mQtI7uSpatKiDnvRR8qO1IsU3rbCDr01/69-sarsfield-street-blacktown-nsw-2148_img0.jpg,"69 Sarsfield Street, Blacktown 2148 NSW is a house. This property has 4 bedrooms and 3 bathrooms. The land area is 562 square metres. In November 2013 this home sold for $515,000. ",69,Sarsfield,Street
410,216211,4185408,34 Vermont Court,Seven Hills,2147,NSW,-33.785086,150.92396,house,564,2,2,2,TRUE,410,4,2,2,565,"$781,267",Private Sale            , ,Jul-18, ,"$940,000", ,https://s3-ap-southeast-2.amazonaws.com/view-property-360-images/Gc1181n3noTphQYbrsxIzUMnuSHISrSGiyjdwDyU2vQ1/34-vermont-court-seven-hills-nsw-2147_img0.jpg,34 Vermont Court is a house in Seven Hills with 4 bedrooms and 2 bathrooms. Its postcode is 2147. The land area of this property is 565 sqm. ,34,Vermont,Court
413,223728,4203092,34 Inkerman Street,Parramatta,2150,NSW,-33.82393,151.0005,house,,2,2,1,TRUE,413,4,2,1,690,"$988,333", ,Private Sale            , ,Dec-11, ,"$550,000",https://s3-ap-southeast-2.amazonaws.com/view-property-360-images/F0Lgn7ItAf4QA8nlrR-EpdAXzy1mnbvYZHGc5RUwQIs1/34-inkerman-street-parramatta-nsw-2150_img0.jpg,"This is a house in Parramatta with 4 bedrooms and 2 bathrooms. Its postcode is 2150. The block size of this property is 690 square metres. It was last sold in 2011 for $550,000. ",34,Inkerman,Street
416,4098156,4242467,1 Canton Street,Kings Park,2148,NSW,-33.73972,150.904401,house,600,1,1,1,TRUE,416,3,1,1,572,"$643,333", , , , , , ,https://s3-ap-southeast-2.amazonaws.com/view-property-360-images/tqLCjkDlJXbzMgf_S8TIuNKiyajanAPN3g_-yR2FXQE1/1-canton-street-kings-park-nsw-2148_img0.jpg,"1 Canton Street, Kings Park 2148 NSW is a house. It has 3 bedrooms and 1 bathroom. The size of this block is 600 sqm. This house was last sold for $666,000 in June 2018. ",1,Canton,Street
417,4107366,4252544,9 Leichhardt Street,Lalor Park,2147,NSW,-33.766438,150.9286,house,569,2,2,2,TRUE,417,4,2,2,576,"$918,667",Private Sale            , ,Aug-09, ,"$315,000", ,https://p360images.realestateview.com.au/default/9-leichhardt-street-lalor-park-nsw-2147-xl,"This is a house in Lalor Park with 4 bedrooms and 2 bathrooms. Its postcode is 2147. The size of this block is 576 square metres. The last time this property sold was in 2009 for $315,000. ",9,Leichhardt,Street
423,4111625,4309080,172 Blacktown road,Blacktown,2148,NSW,-33.786106,150.92053,house,,1,1,2,FALSE,423,0,0,0,565,"$628,333",Private Sale            , ,Mar-03, ,"$297,000", ,https://p360images.realestateview.com.au/default/172-blacktown-road-blacktown-nsw-2148-xl,"The block size is 565 square metres. According to our data, this was last sold for $297,000 in March 2003. ",172,Blacktown,Road
428,3770454,4350733,44 Stainsby Avenue,Kings Langley,2147,NSW,-33.75666,150.94653,house,,2,2,2,TRUE,428,5,2,2,752,"$906,667",Auction            , ,Sep-17, ,"$875,000", ,https://s3-ap-southeast-2.amazonaws.com/view-property-360-images/VwFO_RX_bAO8DepcyfceyXeIyV0vrtBSQjZvze4YzyE1/44-stainsby-avenue-kings-langley-nsw-2147_img0.jpg,"44 Stainsby Avenue is a house in Kings Langley with 4 bedrooms and 3 bathrooms. Its postcode is 2147. The size of this block is 752 square metres. In August 2017 it sold for $875,000. ",44,Stainsby,Avenue
433,759219,4396086,28 Wheeler Street,Lalor Park,2147,NSW,-33.763377,150.924467,house,600,2,2,2,TRUE,433,5,2,2,606,"$790,000", , , , , , ,https://s3-ap-southeast-2.amazonaws.com/view-property-360-images/0i2DlcCEzJkEhzUanaDOQxNgyy205yd6V02A2oSVaPg1/28-wheeler-street-lalor-park-nsw-2147_img0.jpg,"28 Wheeler Street is a house in Lalor Park with 5 bedrooms and 2 bathrooms. Its postcode is 2147. The size of this block is 606 square metres. Our records show that this was last sold in July 2005 for $294,000. ",28,Wheeler,Street
436,2121591,4445288,112 Quakers Road,Marayong,2148,NSW,-33.742387,150.889031,house,577,1,1,1,TRUE,436,3,1,1,0,"$568,333", , , , , , ,https://s3-ap-southeast-2.amazonaws.com/view-property-360-images/bmMMAvT9hiSCQtilbl4904itvz19YBSa534ja0mJfUQ1/112-quakers-road-marayong-nsw-2148_img0.jpg,"112 Quakers Road, Marayong 2148 NSW is a house. This property has 3 bedrooms and 1 bathroom. This property is on a 578 sqm block of land. ",112,Quakers,Road
441,2903508,4457113,57 Orana Avenue,Seven Hills,2147,NSW,-33.778774,150.92546,house,,1,1,2,TRUE,441,3,1,2,636,"$576,667",Private Sale            , ,Nov-60, ,"$5,500", ,https://s3-ap-southeast-2.amazonaws.com/view-property-360-images/zAG_61CNJ0VU6E1W6Qy1i9dQimGtQiVn2Lf_Qt_w5Fg1/57-orana-avenue-seven-hills-nsw-2147_img0.jpg,This is a house in Seven Hills with 3 bedrooms and 1 bathroom. Its postcode is 2147. The block size is 636 sqm. ,57,Orana,Avenue
442,4163987,4458387,5/25 Fox Hills Crescent,Toongabbie,2146,NSW,-33.80359,150.92961,house,341,1,1,2,TRUE,442,0,0,0,0,"$611,333", , , , , , ,https://p360images.realestateview.com.au/default/5-25-fox-hills-crescent-toongabbie-nsw-2146-xl,This property is on a 336 sqm block of land. ,May-25,Fox Hills,Crescent
444,3929435,4477700,10 Mariko Place,Blacktown,2148,NSW,-33.787106,150.88506,house,,1,1,2,FALSE,444,3,1,2,489,"$627,667",Private Sale            ,Private Sale            ,May-05,Dec-97,"$405,000","$92,500",https://s3-ap-southeast-2.amazonaws.com/view-property-360-images/1IyrzTOwxxD5CcE8pcnbE1oAhD-UzUkPkX21gTZN6Cw1/10-mariko-place-blacktown-nsw-2148_img0.jpg,"10 Mariko Place, Blacktown 2148 NSW is a house with 3 bedrooms and 1 bathroom. It is on a block of land that is 489 sqm. According to our data, this last sold for $405,000 in May 2005. ",10,Mariko,Place
445,2530021,4485148,25 Dagmar Crescent,Blacktown,2148,NSW,-33.776888,150.89761,house,599,2,2,1,TRUE,445,3,2,1,599,"$674,000", , , , , , ,https://s3-ap-southeast-2.amazonaws.com/view-property-360-images/xi9UelsVeRy7trVoAPfKTIrlVk9b4Kt11_AUJ4HAhXI1/25-dagmar-crescent-blacktown-nsw-2148_img0.jpg,This is a house in Blacktown with 3 bedrooms and 2 bathrooms. Its postcode is 2148. This property is on a 599 square metre block of land. ,25,Dagmar,Crescent
448,4069350,4521993,43 Baron Close,Kings Langley,2147,NSW,-33.748264,150.9264,house,712,3,3,2,TRUE,448,6,3,2,713,"$1,025,000",Private Sale            ,Private Sale            ,Apr-07,Apr-93,"$663,000","$133,490",https://s3-ap-southeast-2.amazonaws.com/view-property-360-images/yVbJaCmHWpAciGlfmmuWM3QbF64tNTRpDgNtfzyZdV41/43-baron-close-kings-langley-nsw-2147_img0.jpg,"This is a house in Kings Langley, 2147 with 6 bedrooms and 3 bathrooms. The block size of this property is 713 sqm. The last sold price we have on record for this property is $663,000 which is from April 2007. ",43,Baron,Close
449,1507622,4554772,10 Quakers Road,Marayong,2148,NSW,-33.74653,150.89854,house,531,1,1,0,TRUE,449,2,1,0,525,"$581,167", , , , , , ,https://s3-ap-southeast-2.amazonaws.com/view-property-360-images/O3RB8Vg3K1GG8CmDFD5UtrWGfGW2NmHF07-WZEqcAyo1/10-quakers-road-marayong-nsw-2148_img0.jpg,This is a house in Marayong with 2 bedrooms and 1 bathroom. Its postcode is 2148. The block size of this property is 525 square metres. ,10,Quakers,Road
450,216237,4562211,46 Wall Park Avenue,Seven Hills,2147,NSW,-33.777178,150.927684,house,620,2,2,3,TRUE,450,4,1,2,559,"$756,000", ,Private Sale            , ,Sep-11, ,"$488,000",https://p360images.realestateview.com.au/default/46-wall-park-avenue-seven-hills-nsw-2147-xl,"46 Wall Park Avenue is a house in Seven Hills with 4 bedrooms and 1 bathroom. Its postcode is 2147. The block size is 598 sqm. This house last sold for $488,000 in September 2011. ",46,Wall Park,Avenue
451,4156272,4563139,20 Ashcott Street,Kings Langley,2147,NSW,-33.752148,150.92775,house,696,2,2,2,TRUE,451,4,2,2,690,"$952,500",Private Sale            ,Private Sale            ,Apr-16,Oct-08,"$795,000","$420,000",https://s3-ap-southeast-2.amazonaws.com/view-property-360-images/Nm61zUXrcxYSAbAdgN0kINzUSH5kxb1Zl50QDovsKPs1/20-ashcott-street-kings-langley-nsw-2147_img0.jpg,"20 Ashcott Street, Kings Langley 2147 NSW is a house. This property has 4 bedrooms and 2 bathrooms. It is on a block of land that is 690 sqm. When it last sold in 2016, it went for $795,000. ",20,Ashcott,Street
452,214312,4574611,143 Lucas Road,Lalor Park,2147,NSW,-33.767032,150.926813,house,,1,1,1,TRUE,452,3,1,0,730,"$634,333", , , , , , ,https://s3-ap-southeast-2.amazonaws.com/view-property-360-images/eOoDE3e-4YuT5eooK4jBKdmgCkuufH0tA9TIcZgWH681/143-lucas-road-lalor-park-nsw-2147_img0.jpg,"143 Lucas Road, Lalor Park 2147 NSW is a house. It has 3 bedrooms and 1 bathroom. This is on a 730 sqm block of land. ",143,Lucas,Road
458,4092480,4656788,13 Eggleton Street,Blacktown,2148,NSW,-33.748657,150.919723,house,562,1,1,3,TRUE,458,3,1,3,569,"$633,333",Auction            , ,May-18, ,"$635,000", ,https://s3-ap-southeast-2.amazonaws.com/view-property-360-images/u3LXqbnCYPJHooqgzZFM9C0KxrtB462gSmzET5-WETM1/13-eggleton-street-blacktown-nsw-2148_img0.jpg,"13 Eggleton Street, Blacktown 2148 NSW is a house with 3 bedrooms and 1 bathroom. Its land area is 569 sqm. This house was last sold for $635,000 in May 2018. ",13,Eggleton,Street
460,214289,4675828,11 Venn Avenue,Lalor Park,2147,NSW,-33.757857,150.923358,house,,1,1,2,TRUE,460,0,0,0,348,"$661,667",Private Sale            ,Private Sale            ,Aug-02,Jul-99,"$319,000","$93,000",https://p360images.realestateview.com.au/default/11-venn-avenue-lalor-park-nsw-2147-xl,"The land area of this property is 348 sqm. Last time it sold, it went for $319,000, which was in 2002. ",11,Venn,Avenue
461,68387,4681211,29 Mort Street,Blacktown,2148,NSW,-33.760823,150.919105,house,556,2,2,0,TRUE,461,3,2,0,564,"$689,333", , , , , , ,https://s3-ap-southeast-2.amazonaws.com/view-property-360-images/T8cZfHGnsWHoAeG7Of7DXapJpRt0J6QOFiY326JHfAg1/29-mort-street-blacktown-nsw-2148_img0.jpg,"This is a house in Blacktown, 2148 with 3 bedrooms and 2 bathrooms. The size of this block is 564 sqm. It was last sold in 2018 for $670,000. ",29,Mort,Street
462,4085195,4690979,10 Gilmore Road,Lalor Park,2147,NSW,-33.75753,150.930227,house,556,1,1,1,TRUE,462,3,1,1,558,"$681,667",Private Sale            , ,Dec-15, ,"$550,000", ,https://s3-ap-southeast-2.amazonaws.com/view-property-360-images/Ur7yNQ6CUKhqjmJfeJsnWExB2Zyk0xF_b1euXxHtk601/10-gilmore-road-lalor-park-nsw-2147_img0.jpg,"10 Gilmore Road, Lalor Park 2147 NSW is a house. It has 3 bedrooms and 1 bathroom. This property is on a 558 sqm block of land. Last time it sold, it went for $550,000, which was in November 2015. ",10,Gilmore,Road
463,855122,4717335,5 Panaview Crescent,North Rocks,2151,NSW,-33.777664,151.029496,house,695,4,4,3,TRUE,463,5,4,3,704,"$1,501,833", , , , , , ,https://p360images.realestateview.com.au/default/5-panaview-crescent-north-rocks-nsw-2151-xl,"5 Panaview Crescent, North Rocks 2151 NSW is a house with 5 bedrooms and 4 bathrooms. This property is on a 704 sqm block of land. ",5,Panaview,Crescent
466,4126486,4734099,21 Caird Place,Seven Hills,2147,NSW,-33.768353,150.94203,house,552,2,2,1,TRUE,466,4,2,1,538,"$962,500", ,Private Sale            , ,Aug-97, ,"$217,000",https://s3-ap-southeast-2.amazonaws.com/view-property-360-images/RiDp3cdX1rtYRujiB2gplFvcxkYRXMIeg6_bABZ2aGk1/21-caird-place-seven-hills-nsw-2147_img0.jpg,"21 Caird Place, Seven Hills 2147 NSW is a house with 4 bedrooms and 2 bathrooms. The block size of this property is 538 sqm. This last sold for $217,000 in August 1997. ",21,Caird,Place
467,338363,4740921,19 Chester Street,Blacktown,2148,NSW,-33.767355,150.894891,house,,2,2,2,TRUE,467,4,2,2,792,"$704,776", ,Private Sale            , ,Jul-18, , ,https://s3-ap-southeast-2.amazonaws.com/view-property-360-images/9EIDMt0ekm5nCdiKMiyHLHZdTfZpc9Eu52O5iPFdCDg1/19-chester-street-blacktown-nsw-2148_img0.jpg,"19 Chester Street, Blacktown 2148 NSW is a house with 4 bedrooms and 2 bathrooms. The size of this block is 792 square metres. This house was last sold for $825,000 in July 2018. ",19,Chester,Street
475,855816,4845132,65 Picasso Crescent,Old Toongabbie,2146,NSW,-33.784692,150.969414,house,556,2,2,2,TRUE,475,4,2,2,565,"$918,667",Private Sale            ,Private Sale            ,Jul-18,Mar-07,"$852,000","$425,000",https://s3-ap-southeast-2.amazonaws.com/view-property-360-images/OqJIPRO-iBFlYu8tGX8CFeD2mYq7jkErByaU802xtck1/65-picasso-crescent-old-toongabbie-nsw-2146_img0.jpg,"65 Picasso Crescent is a house in Old Toongabbie with 4 bedrooms and 2 bathrooms. Its postcode is 2146. This property is on a 565 square metre block of land. In March 2007 it sold for $425,000. ",65,Picasso,Crescent
477,4083413,4852507,5 Hicks Place,Kings Langley,2147,NSW,-33.752122,150.939251,house,700,2,2,2,TRUE,477,5,2,2,725,"$906,667", ,Private Sale            , ,Mar-07, ,"$430,000",https://s3-ap-southeast-2.amazonaws.com/view-property-360-images/4XtpnM2-o5PYMhNNXdS-woLIa0Hbe6yDnX1ua7ncQAs1/5-hicks-place-kings-langley-nsw-2147_img0.jpg,"5 Hicks Place, Kings Langley 2147 NSW is a house with 5 bedrooms and 2 bathrooms. The size of this block is 725 square metres. Last time it sold was for $956,500, which was in May 2018. ",5,Hicks,Place
480,1183172,4903666,38 Madeira Avenue,Kings Langley,2147,NSW,-33.752918,150.929914,house,696,1,1,4,TRUE,480,3,1,4,738,"$681,667", , , , , , ,https://s3-ap-southeast-2.amazonaws.com/view-property-360-images/nss6zcabgErBt053JbDphkOVDHLBBczHdfOsWoFjfME1/38-madeira-avenue-kings-langley-nsw-2147_img0.jpg,"38 Madeira Avenue, Kings Langley 2147 NSW is a house. This property has 3 bedrooms and 1 bathroom. It is on a block of land that is 738 square metres. ",38,Madeira,Avenue
482,37135,4937911,11 Tunley Place,Kings Langley,2147,NSW,-33.740047,150.920759,house,691,2,2,2,TRUE,482,3,2,2,727,"$745,833",Private Sale            ,Private Sale            ,Aug-13,Jan-06,"$625,000","$475,000",https://s3-ap-southeast-2.amazonaws.com/view-property-360-images/HedisDgFeAPfpT7tej8-mA9BDsk9nbQTYaq0lhp-UV41/11-tunley-place-kings-langley-nsw-2147_img0.jpg,"This is a house in Kings Langley, 2147 with 3 bedrooms and 2 bathrooms. The land area is 727 square metres. It was last sold in August 2013 for $625,000. ",11,Tunley,Place
484,68354,4952265,137A Kildare Road,Blacktown,2148,NSW,-33.768784,150.89215,house,,3,3,2,FALSE,484,5,3,2,318,"$856,000", ,Private Sale            , ,Nov-12, ,"$535,000",https://s3-ap-southeast-2.amazonaws.com/view-property-360-images/dXUie_1ItAtZfarvdkUS2bKSFJEyS0MhjOA3Mq0EmAY1/137a-kildare-road-blacktown-nsw-2148_img0.jpg,"137A Kildare Road, Blacktown 2148 NSW is a house with 5 bedrooms and 3 bathrooms. It is on a block of land that is 322 square metres. When it last sold in November 2012, it went for $535,000. ",137A,Kildare,Road
486,3335545,4969177,5 Rawton Avenue,Northmead,2152,NSW,-33.790478,150.99141,house,607,2,2,2,FALSE,486,3,2,2,612,"$885,833", , , , , , ,https://s3-ap-southeast-2.amazonaws.com/view-property-360-images/oYTyOzOZJ9RITIAS2cMXjkF95YnA0KDLhvBGrOBNl3w1/5-rawton-avenue-northmead-nsw-2152_img0.jpg,"5 Rawton Avenue, Northmead 2152 NSW is a house. This property has 3 bedrooms and 2 bathrooms. This is on a 612 square metre block of land. This house previously sold for $292,000 in February 2000. ",5,Rawton,Avenue
487,4077242,4974596,6 Lorraine Street,Seven Hills,2147,NSW,-33.76888,150.940178,house,746,2,2,2,TRUE,487,6,2,2,752,"$858,833",Private Sale            , ,Jun-18, ,"$870,000", ,https://s3-ap-southeast-2.amazonaws.com/view-property-360-images/7cNVVDspXVZAwc3VaR6OOs2X7QU6Ldxr0v2HC5Y2ApQ1/6-lorraine-street-seven-hills-nsw-2147_img0.jpg,"6 Lorraine Street is a house in Seven Hills with 6 bedrooms and 2 bathrooms. Its postcode is 2147. This property is on a 746 square metre block of land. When it last sold in June 2018, it went for $870,000. ",6,Lorraine,Street
488,123961,4977499,17 Becky Avenue,North Rocks,2151,NSW,-33.774873,151.026658,house,701,3,3,4,TRUE,488,5,3,3,665,"$1,490,333",Private Sale            ,Private Sale            ,Sep-99,Nov-96,"$342,500","$250,000",https://s3-ap-southeast-2.amazonaws.com/view-property-360-images/VeauPaPL3BHLDDALP2iUIiXFtmRMkenupcXUGx56uQQ1/17-becky-avenue-north-rocks-nsw-2151_img0.jpg,"This is a house in North Rocks with 5 bedrooms and 3 bathrooms. Its postcode is 2151. Its block size is 665 square metres. Last time it sold was for $342,500, which was in September 1999. ",17,Becky,Avenue
495,68394,5078260,76 Western Crescent,Blacktown,2148,NSW,-33.780506,150.90004,house,,3,3,1,FALSE,495,5,3,1,571,"$866,000", ,Private Sale            , ,Feb-15, ,"$640,000",https://s3-ap-southeast-2.amazonaws.com/view-property-360-images/aABfzUAMFO4W9zo4xQD30lGh1-TGEfqqVf9sSBesLVI1/76-western-crescent-blacktown-nsw-2148_img0.jpg,"76 Western Crescent, Blacktown 2148 NSW is a house with 5 bedrooms and 3 bathrooms. This is on a 571 square metre block of land. Last time it sold, it went for $640,000, which was in 2015. ",76,Western,Crescent
496,214309,5087667,69 Christine Crescent,Lalor Park,2147,NSW,-33.763334,150.934189,house,569,1,1,2,TRUE,496,3,1,2,0,"$665,000", , , , , , ,https://s3-ap-southeast-2.amazonaws.com/view-property-360-images/AySwMuMZHFyKyVPArIJBhHtVWWOOe3qT13dgTrOGvdo1/69-christine-crescent-lalor-park-nsw-2147_img0.jpg,"69 Christine Crescent is a house in Lalor Park with 3 bedrooms and 1 bathroom. Its postcode is 2147. Its land area is 568 sqm. This house was last sold for $620,000 in June 2018. ",69,Christine,Crescent
498,1088934,5106418,9 De Castella Drive,Blacktown,2148,NSW,-33.78143,150.88041,house,403,1,1,2,TRUE,498,3,1,1,0,"$611,000", ,Private Sale            , ,Dec-08, ,"$330,000",https://s3-ap-southeast-2.amazonaws.com/view-property-360-images/CrRbofqilza17TVIYr53e7pgcW9qpmykgI2t7I0BJUE1/9-de-castella-drive-blacktown-nsw-2148_img0.jpg,"9 De Castella Drive, Blacktown 2148 NSW is a house with brick veneer walls. This property has 3 bedrooms and 1 bathroom. The size of this block is 404 square metres. This house last sold for $330,000 in December 2008. ",9,De Castella,Drive
499,1188608,5112022,69 PENDANT AVENUE,Blacktown,2148,NSW,-33.785206,150.913835,house,613,2,2,2,TRUE,499,6,2,1,0,"$853,333", ,Private Sale            , ,Oct-07, ,"$100,000",https://p360images.realestateview.com.au/default/69-pendant-avenue-blacktown-nsw-2148-xl,"69 Pendant Avenue, Blacktown 2148 NSW is a house. It has 6 bedrooms and 2 bathrooms. Its land area is 637 square metres. When it last sold in October 2007, it went for $100,000. ",69,PENDANT,Avenue
504,1140716,5160518,315 Bungarribee Rd,Blacktown,2148,NSW,-33.774071,150.884183,house,552,1,1,3,TRUE,504,3,1,1,552,"$602,333",Private Sale            ,Private Sale            ,Jul-13,Jun-12,"$350,000","$325,000",https://s3-ap-southeast-2.amazonaws.com/view-property-360-images/Uw_hrV0Or_tFi02dFLU2xv_kwCVIRUu8YFP61SWeJbw1/315-bungarribee-road-blacktown-nsw-2148_img0.jpg,"This is a house in Blacktown, 2148 with 3 bedrooms and 1 bathroom. This property is on a 552 sqm block of land. According to our records, this last sold for $350,000 in July 2013. ",315,Bungarribee,Road
509,3342626,5218677,9 Fowler Street,Seven Hills,2147,NSW,-33.78077,150.9252,house,575,5,2,1,TRUE,509,3,1,2,591,"$648,333",Private Sale            ,Private Sale            ,Feb-09,Mar-92,"$300,000","$135,000",https://s3-ap-southeast-2.amazonaws.com/view-property-360-images/aO_03ccMIy3fyV2B09Od6__a7LxxoFsYdDHmjdxZzgo1/9-fowler-street-seven-hills-nsw-2147_img0.jpg,"9 Fowler Street, Seven Hills 2147 NSW is a house. This property has 3 bedrooms and 1 bathroom. It is on a block of land that is 591 square metres. Last time it sold, it went for $300,000, which was in February 2009. ",9,Fowler,Street
510,68437,5223600,7/26 West Street,Blacktown,2148,NSW,-33.77988,150.908,house,,2,2,1,FALSE,510,0,0,0,0,"$540,000", , , , , , ,https://p360images.realestateview.com.au/default/7-26-west-street-blacktown-nsw-2148-xl,"7/26 West Street, Blacktown 2148 NSW is a house with 4 bedrooms and 2 bathrooms. ",Jul-26,West,Street
515,128478,5258713,58 Bulli Road,Toongabbie,2146,NSW,-33.791358,150.962582,house,619,1,1,2,FALSE,515,0,0,0,0,"$736,684", , , , , , ,https://p360images.realestateview.com.au/default/58-bulli-road-toongabbie-nsw-2146-xl,The size of this block is 625 square metres. ,58,Bulli,Road
519,124443,5292981,217 Richmond Road,Marayong,2148,NSW,-33.752058,150.887717,house,,1,1,2,TRUE,519,0,0,0,538,"$608,000",Private Sale            , ,May-01, ,"$140,000", ,https://p360images.realestateview.com.au/default/217-richmond-road-marayong-nsw-2148-xl,"217 Richmond Road, Marayong 2148 NSW is a house with 3 bedrooms and 1 bathroom. The block size of this property is 538 sqm. It last sold for $140,000 in May 2001. ",217,Richmond,Road
522,307149,5316202,4 Mercury Place,Kings Langley,2147,NSW,-33.753427,150.950753,house,645,5,4,0,TRUE,522,4,4,0,650,"$895,000",Private Sale            , ,Nov-04, ,"$470,000", ,https://s3-ap-southeast-2.amazonaws.com/view-property-360-images/_QWr0LdXa-14Tv5D5NOylj3lY1PhaG3OmUeQNAFMvOs1/4-mercury-place-kings-langley-nsw-2147_img0.jpg,"4 Mercury Place is a house in Kings Langley with 4 bedrooms and 4 bathrooms. Its postcode is 2147. The land area is 650 square metres. According to our data, this was last sold for $470,000 in November 2004. ",4,Mercury,Place
523,2676719,5317133,8 Heber Place,Prospect,2148,NSW,-33.800022,150.9149,house,,2,2,2,FALSE,523,4,2,2,576,"$761,267",Private Sale            , ,Mar-95, ,"$391,500", ,https://s3-ap-southeast-2.amazonaws.com/view-property-360-images/mAae2MdSHwzDUigiFVkRYq3RVFQ1-Dryep7kboQTlho1/8-heber-place-prospect-nsw-2148_img0.jpg,"8 Heber Place, Prospect 2148 NSW is a house. It has 4 bedrooms and 2 bathrooms. The land area of this property is 576 sqm. Last time it sold, it went for $391,500, which was in 1995. ",8,Heber,Place
527,2706508,5331650,34 Bridge View Street,Blacktown,2148,NSW,-33.788371,150.905594,house,638,1,1,1,TRUE,527,3,1,1,640,"$597,167", ,Private Sale            , ,Jul-03, ,"$325,000",https://p360images.realestateview.com.au/default/34-bridge-view-street-blacktown-nsw-2148-xl,"This is a house in Blacktown with 3 bedrooms and 1 bathroom. Its postcode is 2148. The size of this block is 640 square metres. Our records show that this was last sold in 2003 for $325,000. ",34,Bridge View,Street
528,124444,5337809,45 Noel Street,Marayong,2148,NSW,-33.75815,150.89912,house,,2,2,2,FALSE,528,4,2,2,566,"$718,109", , , , , , ,https://s3-ap-southeast-2.amazonaws.com/view-property-360-images/9yOa3FghM1KsUSv_G3feg3lLZlgGo4K4C0PnIfahD6I1/45-noel-street-marayong-nsw-2148_img0.jpg,45 Noel Street is a house in Marayong with 4 bedrooms and 2 bathrooms. Its postcode is 2148. Its land area is 566 square metres. ,45,Noel,Street
531,124457,5349894,2 Davis Road,Marayong,2148,NSW,-33.757741,150.895934,house,,1,1,1,TRUE,531,4,1,1,581,"$760,000",Private Sale            , ,Aug-09, ,"$303,000", ,https://s3-ap-southeast-2.amazonaws.com/view-property-360-images/VPDJDx4dfPj4mNhSvTKipN60HHc3NzFhEZOyCMKO7Ws1/2-davis-road-marayong-nsw-2148_img0.jpg,"This is a house in Marayong, 2148 with 4 bedrooms and 1 bathroom. This property is on a 581 sqm block of land and the land is level. Last time it sold was for $303,000, which was in August 2009. ",2,Davis,Road
533,1577585,5359356,23 Sydney Joseph Drive,Seven Hills,2147,NSW,-33.764226,150.947963,house,556,1,1,1,TRUE,533,3,1,1,0,"$676,667", , , , , , ,https://s3-ap-southeast-2.amazonaws.com/view-property-360-images/e19XzhvoIei3AdYrBH0h8JHI__hwGPgEhci5BwN1fB81/23-sydney-joseph-drive-seven-hills-nsw-2147_img0.jpg,"23 Sydney Joseph Drive, Seven Hills 2147 NSW is a house. It has 3 bedrooms and 1 bathroom. The block size of this property is 558 sqm. ",23,Sydney Joseph,Drive
539,3502777,5392402,17 Wentworth Avenue,North Rocks,2151,NSW,-33.77973,151.011918,house,696,1,1,1,TRUE,539,3,1,1,697,"$1,032,000",Private Sale            ,Private Sale            ,Jul-03,May-02,"$535,000","$430,000",https://s3-ap-southeast-2.amazonaws.com/view-property-360-images/jFCKQwYRElcJY3TS1FyyCNuczrb4mnl7WEM3DVyDU_k1/17-wentworth-avenue-north-rocks-nsw-2151_img0.jpg,"This is a house in North Rocks, 2151 with 3 bedrooms and 1 bathroom. Its land area is 697 square metres. It last sold for $535,000 in July 2003. ",17,Wentworth,Avenue
541,2461069,5409149,13 Rae Street,Seven Hills,2147,NSW,-33.768974,150.92647,house,,1,1,2,FALSE,541,3,1,2,580,"$720,333", ,Private Sale            , ,Jul-14, ,"$496,000",https://s3-ap-southeast-2.amazonaws.com/view-property-360-images/A07s21MHSCBgshOI4Xuxh6wcEzg7P83fx0yaBtFkgME1/13-rae-street-seven-hills-nsw-2147_img0.jpg,"13 Rae Street, Seven Hills 2147 NSW is a house. This property has 3 bedrooms and 1 bathroom. The block size of this property is 580 square metres. The last sold price we have on record for this address is $496,000 which is from July 2014. ",13,Rae,Street
543,68390,5419448,187 Kildare Road,Blacktown,2148,NSW,-33.76729,150.88759,house,,1,1,1,FALSE,543,3,1,1,450,"$611,667", ,Private Sale            , ,Mar-10, , ,https://s3-ap-southeast-2.amazonaws.com/view-property-360-images/yBbWtH8RPSXa05ineJeAbavAzJHV9_y_4YvNVdoGAGM1/187-kildare-road-blacktown-nsw-2148_img0.jpg,"187 Kildare Road, Blacktown 2148 NSW is a brick veneer wall house. This property has 3 bedrooms and 1 bathroom. The size of this block is 450 sqm. Last time it sold, it went for $292,000, which was in March 2010. ",187,Kildare,Road
545,2402014,5422424,136 Windsor Road,Northmead,2152,NSW,-33.78481,150.9956,house,,2,2,2,TRUE,545,4,2,2,558,"$952,000",Private Sale            ,Private Sale            ,Nov-14,Apr-09,"$680,000","$440,000",https://s3-ap-southeast-2.amazonaws.com/view-property-360-images/DrvSWUHkL11WEm2-N8oeYPiSVGo5MsBNs7vNy6sC--Q1/136-windsor-road-northmead-nsw-2152_img0.jpg,"136 Windsor Road is a house in Northmead with 4 bedrooms and 2 bathrooms. Its postcode is 2152. The land area is 558 square metres. The last time this property sold was in 2014 for $680,000. ",136,Windsor,Road
549,214296,5442804,25 Cartwright Crescent,Lalor Park,2147,NSW,-33.760134,150.934688,house,575,1,1,1,TRUE,549,3,1,1,582,"$665,000",Private Sale            ,Private Sale            ,Jan-03,Mar-98,"$290,000","$123,000",https://s3-ap-southeast-2.amazonaws.com/view-property-360-images/Fn8AYp-FpjK8FldwzigePMd38i8tB6TwAZ8Ep-ePQTI1/25-cartwright-crescent-lalor-park-nsw-2147_img0.jpg,"25 Cartwright Crescent, Lalor Park 2147 NSW is a house. It has 3 bedrooms and 1 bathroom. This is on a 582 sqm block of land. Last time it sold was for $290,000, which was in January 2003. ",25,Cartwright,Crescent
552,3152619,5480468,70 Wall Park Avenue,Seven Hills,2147,NSW,-33.776703,150.92534,house,660,1,1,1,FALSE,552,3,2,1,619,"$667,000", ,Private Sale            , ,May-98, ,"$112,000",https://s3-ap-southeast-2.amazonaws.com/view-property-360-images/cMy72ujH6JWclnuYGzd-4-g8xuNW9Nzq8l6iD8bfOUA1/70-wall-park-avenue-seven-hills-nsw-2147_img0.jpg,"70 Wall Park Avenue, Seven Hills 2147 NSW is a house. This property has 3 bedrooms and 1 bathroom. This is on a 601 square metre block of land. The last time this property sold was in May 1998 for $112,000. ",70,Wall Park,Avenue
553,2432705,5499266,12 Ivy Street,Toongabbie,2146,NSW,-33.782238,150.9463,house,697,1,1,2,TRUE,553,3,1,2,610,"$660,333", ,Private Sale            , ,Nov-15, ,"$670,000",https://s3-ap-southeast-2.amazonaws.com/view-property-360-images/RVR220qmMELyukhRHmZT0eiRzH6_khRtHeoCA0NuWKI1/12-ivy-street-toongabbie-nsw-2146_img0.jpg,"12 Ivy Street is a house in Toongabbie with 3 bedrooms and 1 bathroom. Its postcode is 2146. This is on a 610 sqm block of land. According to our records, this last sold for $669,250 in November 2015. ",12,Ivy,Street
554,68267,5500348,129 Stephen Street,Blacktown,2148,NSW,-33.763121,150.92001,house,1012,3,1,0,TRUE,554,3,1,1,1017,"$720,333", ,Private Sale            , ,Aug-16, ,"$775,000",https://s3-ap-southeast-2.amazonaws.com/view-property-360-images/u_s30ARIXA8b4_OD5JcH3F1in7vZ9ECI5GWRCECjFDc1/129-stephen-street-blacktown-nsw-2148_img0.jpg,"This is a house in Blacktown, 2148 with 3 bedrooms and 1 bathroom. This property is on a 1017 square metre block of land. 129 Stephen Street last sold for $775,000 in 2016. ",129,Stephen,Street
563,68326,5577659,273 Bungarribee Road,Blacktown,2148,NSW,-33.774599,150.888427,house,,1,1,2,TRUE,563,3,1,2,660,"$607,333",Private Sale            ,Private Sale            ,Jul-18,Mar-10,"$612,000","$300,000",https://s3-ap-southeast-2.amazonaws.com/view-property-360-images/cHPN_8nTn3KWSnDZsofm0v-c-UnrQ9B_nEPelYSeYJ41/273-bungarribee-road-blacktown-nsw-2148_img0.jpg,"This is a house in Blacktown with 3 bedrooms and 1 bathroom. Its postcode is 2148. This property is on a 660 sqm block of land. According to our data, this last sold for $300,000 in March 2010. ",273,Bungarribee,Road
567,128463,5603502,15 Bulli Road,Toongabbie,2146,NSW,-33.790394,150.958344,house,854,1,1,6,TRUE,567,4,1,6,860,"$786,667",Private Sale            , ,Dec-88, ,"$142,000", ,https://s3-ap-southeast-2.amazonaws.com/view-property-360-images/WireQXUEqj69IAJudIOiq5URR35PVUuZoAjRSAegIOs1/15-bulli-road-toongabbie-nsw-2146_img0.jpg,"15 Bulli Road is a house in Toongabbie with 4 bedrooms and 1 bathroom. Its postcode is 2146. The land area of this property is 860 square metres. In December 1988 it sold for $142,000. ",15,Bulli,Road
568,68294,5608293,23 Brickfield Place,Blacktown,2148,NSW,-33.780293,150.91562,house,,1,1,1,FALSE,568,3,1,1,425,"$582,167",Private Sale            , ,Feb-11, ,"$392,500", ,https://s3-ap-southeast-2.amazonaws.com/view-property-360-images/eroDTqUsZRfNnip5zS27T61r7wh10lZvBh_pOO6YtNo1/23-brickfield-place-blacktown-nsw-2148_img0.jpg,"23 Brickfield Place, Blacktown 2148 NSW is a house. This property has 3 bedrooms and 1 bathroom. The land area is 425 square metres. The last time this property sold was in 2011 for $392,500. ",23,Brickfield,Place
569,3572438,5646479,13 Hawke Place,Kings Langley,2147,NSW,-33.755429,150.941336,house,698,2,2,2,TRUE,569,3,2,2,714,"$811,667", , , , , , ,https://s3-ap-southeast-2.amazonaws.com/view-property-360-images/RhdqhWdod3BOcc6GOKWOM_1wbCO_7gvW-G5B0gyFTv41/13-hawke-place-kings-langley-nsw-2147_img0.jpg,This is a house in Kings Langley with 3 bedrooms and 2 bathrooms. Its postcode is 2147. This property is on a 714 square metre block of land. ,13,Hawke,Place
570,2043060,5648642,8 Frederick Street,Blacktown,2148,NSW,-33.752693,150.918526,house,1094,1,1,3,TRUE,570,4,1,3,1102,"$748,333",Private Sale            ,Private Sale            ,Mar-14,May-07,"$330,000", ,https://s3-ap-southeast-2.amazonaws.com/view-property-360-images/0BEKEp3CVCCiyJoZ4dpcCjesjMo7NdExWscJXy0SISM1/8-frederick-street-blacktown-nsw-2148_img0.jpg,"8 Frederick Street, Blacktown 2148 NSW is a house. This property has 4 bedrooms and 1 bathroom. Its land area is 1102 square metres. Last time it sold was for $695,000, which was in 2014. ",8,Frederick,Street
571,2996355,5654362,314 Seven Hills Road,Kings Langley,2147,NSW,-33.760316,150.9531,house,884,2,2,1,TRUE,571,4,2,1,888,"$771,000",Private Sale            , ,Jan-96, ,"$188,500", ,https://s3-ap-southeast-2.amazonaws.com/view-property-360-images/EUaQdsflanFjrjK0bMM-WXAZCfkY4lwVVROkya4Ap7M1/314-seven-hills-road-kings-langley-nsw-2147_img0.jpg,"314 Seven Hills Road, Kings Langley 2147 NSW is a house. It has 4 bedrooms and 2 bathrooms. Its land area is 888 square metres. Last time it sold was for $188,500, which was in January 1996. ",314,Seven Hills,Road
572,124460,5656706,56 Terrigal Street,Marayong,2148,NSW,-33.746203,150.88434,house,557,1,1,2,FALSE,572,3,1,1,557,"$607,333", ,Private Sale            , ,Oct-07, ,"$325,000",https://s3-ap-southeast-2.amazonaws.com/view-property-360-images/OR2__2dMmBawxzpQt8VYaJ-22kFXFaz1_aWgLc1k9II1/56-terrigal-street-marayong-nsw-2148_img0.jpg,"This is a house in Marayong with 3 bedrooms and 1 bathroom. Its postcode is 2148. The land area is 557 square metres. 56 Terrigal Street last sold for $325,000 in October 2007. ",56,Terrigal,Street
574,216249,5725416,4 Jannarn Grove,Seven Hills,2147,NSW,-33.764911,150.945901,house,562,1,1,3,TRUE,574,3,1,1,567,"$676,667", , , , , , ,https://s3-ap-southeast-2.amazonaws.com/view-property-360-images/02KXEQARPHJSftvfv9U8-OZJpOoM_qNQRqMrQV3250E1/4-jannarn-grove-seven-hills-nsw-2147_img0.jpg,"This is a house in Seven Hills, 2147 with 3 bedrooms and 1 bathroom. Its land area is 567 square metres. The last time this property sold was in 2013 for $457,500. ",4,Jannarn,Grove
